Commune,NPA,Commune d'annonce / District,Commune d'annonce référence,Canton,E,N,Langue,Nb d'habitants,0 an,1 an,2 ans,3 ans,4 ans,5 ans,6 ans,7 ans,8 ans,9 ans,10 ans,11 ans,12 ans,13 ans,14 ans,15 ans,16 ans,17 ans,18 ans,19 ans,20 ans,21 ans,22 ans,23 ans,24 ans,25 ans,26 ans,27 ans,28 ans,29 ans,30 ans,31 ans,32 ans,33 ans,34 ans,35 ans,36 ans,37 ans,38 ans,39 ans,40 ans,41 ans,42 ans,43 ans,44 ans,45 ans,46 ans,47 ans,48 ans,49 ans,50 ans,51 ans,52 ans,53 ans,54 ans,55 ans,56 ans,57 ans,58 ans,59 ans,60 ans,61 ans,62 ans,63 ans,64 ans,65 ans,66 ans,67 ans,68 ans,69 ans,70 ans,71 ans,72 ans,73 ans,74 ans,75 ans,76 ans,77 ans,78 ans,79 ans,80 ans,81 ans,82 ans,83 ans,84 ans,85 ans,86 ans,87 ans,88 ans,89 ans,90 ans,91 ans,92 ans,93 ans,94 ans,95 ans,96 ans,97 ans,98 ans,99 ans,100+ ans,E_lv03,N_lv03,lat,lng,distance_to_venoge_km
Penthaz,1303,Penthaz,5496,VD,2531186.492,1161298.778,fr,1946,19,11,19,19,32,24,25,17,23,27,23,30,36,34,29,30,17,21,24,21,26,13,28,17,26,20,16,19,23,24,27,20,31,19,20,28,35,22,21,31,25,27,32,42,31,20,40,28,32,26,47,35,39,29,26,34,22,30,19,18,24,30,20,28,18,19,12,14,19,6,11,9,13,10,17,14,9,21,18,7,12,9,9,9,5,5,8,2,6,0,2,4,2,1,0,0,2,1,0,1,0,531186.4920000001,161298.77799999993,46.59940603205985,6.540555999377894,0.74
Penthalaz,1305,Penthalaz,5495,VD,2530510.884,1162919.512,fr,3177,14,32,26,36,33,33,33,36,39,39,35,45,44,48,37,37,34,28,31,29,39,27,45,20,34,29,45,34,38,47,44,38,47,49,42,33,50,38,45,55,60,51,38,52,44,37,38,50,37,56,56,50,49,35,41,41,44,41,53,40,47,31,34,42,32,34,28,31,27,26,23,22,26,23,20,28,21,24,20,22,22,28,19,12,17,14,12,18,9,1,5,9,19,7,9,6,3,1,1,3,0,530510.8840000001,162919.5120000001,46.61391459416317,6.5314949499734585,2.72
Bournens,1035,Bournens,5472,VD,2533025.028,1162344.417,fr,532,7,9,8,13,6,7,8,4,2,5,4,7,5,5,7,7,8,8,6,11,5,11,1,4,3,2,9,9,6,5,7,6,2,13,9,11,11,9,13,10,4,12,5,9,11,6,7,7,7,6,4,14,8,8,9,7,8,4,5,5,10,8,6,4,2,5,2,2,4,6,3,3,6,3,3,4,5,2,4,1,2,1,3,2,3,1,2,1,3,2,0,0,0,0,0,0,0,0,0,0,0,533025.0279999999,162344.4169999999,46.60899828199662,6.564396574964031,3.51
Vufflens-la-Ville,1302,Vufflens-la-Ville,5503,VD,2530896.906,1158606.892,fr,1342,7,8,7,11,19,13,20,8,21,9,15,13,17,12,19,17,17,14,26,16,18,18,17,9,20,16,10,6,9,9,11,9,10,12,19,15,17,19,16,8,16,19,26,14,14,18,23,33,27,14,19,18,26,25,22,25,17,25,23,25,24,19,25,12,19,13,14,17,11,13,10,6,11,19,11,17,11,15,13,13,11,7,13,3,6,6,1,1,2,4,4,0,2,1,1,0,1,0,0,0,0,530896.906,158606.892,46.5751626944195,6.537180530227648,3.65
Daillens,1306,Daillens,5480,VD,2531837.469,1164336.34,fr,1099,5,9,9,13,10,9,14,19,19,18,10,16,19,17,19,18,16,9,15,11,7,13,11,7,10,14,9,7,7,13,11,16,13,15,17,15,19,15,19,16,23,10,24,32,22,16,15,19,20,16,28,15,12,17,12,16,18,17,8,18,8,17,10,6,12,10,10,22,11,11,12,7,9,5,9,11,4,3,2,4,3,3,3,3,2,4,4,0,0,1,1,2,1,1,0,1,0,0,0,0,0,531837.469,164336.34000000008,46.62679554336602,6.548601504570058,3.98
Daillens,1306,Bettens,5471,VD,2532844.944,1163427.459,fr,653,14,10,5,8,3,3,10,7,6,9,11,4,11,13,10,7,5,3,4,4,3,9,3,3,9,8,7,8,15,11,13,11,11,13,14,5,12,6,7,8,11,11,23,15,16,12,7,11,15,6,9,13,7,12,11,4,11,14,10,12,11,9,7,7,6,8,7,1,3,1,5,4,2,3,4,3,1,2,2,3,1,0,3,4,0,1,0,1,0,0,0,0,0,0,0,0,1,0,0,0,0,532844.9440000001,163427.45900000003,46.61872217671123,6.561888143988615,3.99
Sullens,1036,Sullens,5501,VD,2533207.01,1160372.401,fr,1225,12,20,14,16,17,22,22,12,17,12,12,16,16,11,13,16,11,10,16,8,10,4,7,6,14,11,12,13,16,16,15,25,25,26,20,22,29,27,16,18,9,14,19,18,16,13,21,21,17,19,20,15,14,18,13,16,20,11,19,21,14,16,13,12,13,12,11,11,20,8,6,7,8,6,13,6,8,9,7,10,5,11,8,5,4,4,2,6,1,3,1,1,0,2,2,0,0,0,0,0,1,533207.0099999998,160372.40100000007,46.59127817929102,6.567057728849344,4.12
Mex VD,1031,Mex (VD),5489,VD,2532762.695,1158544.679,fr,809,12,9,4,17,7,11,11,5,9,11,8,6,4,12,6,13,6,9,10,4,2,4,4,7,7,9,7,11,5,9,17,11,14,18,19,19,5,11,9,14,8,19,17,13,9,9,12,11,15,10,20,6,10,10,11,12,12,9,10,5,7,10,10,10,10,9,5,6,10,9,13,7,7,7,7,9,7,8,4,9,4,7,6,3,3,5,1,1,3,2,1,2,1,1,0,0,0,0,1,0,0,532762.6949999998,158544.679,46.57479325767466,6.56152693163746,4.32
Cossonay-Ville,1304,Cossonay,5477,VD,2528224.637,1163208.142,fr,4902,39,51,58,67,68,67,48,47,50,45,47,50,57,39,59,49,64,43,49,53,50,49,63,72,70,64,84,87,87,67,83,89,83,79,96,71,93,74,72,70,79,89,80,70,70,61,53,65,60,56,70,77,73,65,73,72,82,54,63,76,52,65,56,48,41,39,41,53,38,29,37,36,35,41,37,31,36,34,29,17,27,13,24,18,15,14,13,6,8,9,8,0,3,1,3,1,1,1,1,0,0,528224.6370000001,163208.142,46.6162691833741,6.501607066133001,4.72
Lussery-Villars,1307,Lussery-Villars,5487,VD,2530065.487,1164974.85,fr,468,9,5,8,9,7,7,5,3,4,3,6,6,4,6,3,2,4,3,5,1,3,5,3,4,4,4,2,5,7,8,2,9,3,4,9,12,11,9,8,6,11,9,7,10,5,12,5,5,2,7,4,6,5,8,8,5,5,4,10,9,10,7,11,9,5,7,7,8,5,3,1,2,3,5,2,2,0,1,2,5,2,3,1,1,0,3,2,2,2,0,0,0,1,0,0,1,0,0,0,0,0,530065.4870000002,164974.8500000001,46.63235579437868,6.525368802612086,4.85
Mex VD,1031,Vufflens-la-Ville,5503,VD,2531861.514,1157491.712,fr,1342,7,8,7,11,19,13,20,8,21,9,15,13,17,12,19,17,17,14,26,16,18,18,17,9,20,16,10,6,9,9,11,9,10,12,19,15,17,19,16,8,16,19,26,14,14,18,23,33,27,14,19,18,26,25,22,25,17,25,23,25,24,19,25,12,19,13,14,17,11,13,10,6,11,19,11,17,11,15,13,13,11,7,13,3,6,6,1,1,2,4,4,0,2,1,1,0,1,0,0,0,0,531861.514,157491.71200000006,46.56523060959491,6.549927593384812,5.01
Gollion,1124,Gollion,5484,VD,2528828.617,1159915.692,fr,1064,11,8,6,21,19,16,16,11,12,13,15,9,15,15,11,8,10,9,9,8,8,4,2,13,13,11,9,8,17,9,18,17,13,15,22,20,21,16,17,15,15,17,16,20,18,17,9,17,13,13,18,15,23,17,13,15,13,13,17,13,15,22,13,21,13,10,9,8,9,6,6,14,6,8,6,9,9,12,6,2,5,8,6,6,5,2,2,0,1,1,1,1,0,0,0,0,0,0,0,0,0,528828.6170000001,159915.69200000004,46.58671839126107,6.5099999553762595,5.04
Boussens,1034,Boussens,5473,VD,2534597.401,1161652.396,fr,1007,7,10,9,10,10,14,11,21,16,20,18,18,13,7,16,13,14,9,15,12,13,9,12,10,5,11,4,2,13,10,13,10,9,10,10,15,14,18,13,25,13,14,19,14,23,15,12,10,13,12,13,19,12,24,17,12,21,14,12,16,21,19,18,9,7,10,11,15,10,6,8,5,7,8,4,7,4,8,5,9,4,5,3,1,3,2,0,1,2,0,0,0,0,0,0,0,0,0,0,0,1,534597.4010000001,161652.39599999995,46.6029292319512,6.5850177537123615,5.08
Bettens,1042,Bettens,5471,VD,2533781.243,1163947.157,fr,653,14,10,5,8,3,3,10,7,6,9,11,4,11,13,10,7,5,3,4,4,3,9,3,3,9,8,7,8,15,11,13,11,11,13,14,5,12,6,7,8,11,11,23,15,16,12,7,11,15,6,9,13,7,12,11,4,11,14,10,12,11,9,7,7,6,8,7,1,3,1,5,4,2,3,4,3,1,2,2,3,1,0,3,4,0,1,0,1,0,0,0,0,0,0,0,0,1,0,0,0,0,533781.2429999998,163947.1569999999,46.62349029679211,6.574036326908765,5.31
Allens,1304,Cossonay,5477,VD,2528794.379,1161178.47,fr,4902,39,51,58,67,68,67,48,47,50,45,47,50,57,39,59,49,64,43,49,53,50,49,63,72,70,64,84,87,87,67,83,89,83,79,96,71,93,74,72,70,79,89,80,70,70,61,53,65,60,56,70,77,73,65,73,72,82,54,63,76,52,65,56,48,41,39,41,53,38,29,37,36,35,41,37,31,36,34,29,17,27,13,24,18,15,14,13,6,8,9,8,0,3,1,3,1,1,1,1,0,0,528794.3790000002,161178.46999999997,46.59807336229364,6.509358148944376,5.39
Aclens,1123,Aclens,5621,VD,2528740.664,1157918.467,fr,587,9,7,7,12,5,3,8,7,8,5,6,10,8,9,3,8,7,6,2,3,7,6,9,4,8,13,6,4,3,10,8,7,9,14,10,6,10,12,13,12,8,8,12,9,4,6,15,4,9,14,5,4,2,4,13,8,8,11,10,8,6,8,12,4,7,5,5,6,4,5,4,5,3,7,2,4,4,6,3,1,2,2,2,3,0,4,2,0,1,2,1,0,0,0,0,0,1,0,0,0,0,528740.6639999999,157918.46699999995,46.56874408609217,6.509161121073372,6.28
Senarclens,1304,Senarclens,5499,VD,2526743.541,1161266.113,fr,480,2,5,4,5,1,7,9,10,4,8,7,6,6,5,10,4,5,9,4,5,4,7,5,3,3,3,2,3,3,9,5,5,4,4,8,12,4,5,6,9,4,4,3,10,15,4,10,12,7,8,8,6,8,7,10,5,8,5,9,6,3,6,6,8,4,3,6,4,5,6,4,3,3,5,0,4,5,3,4,4,0,3,1,2,5,1,4,1,0,1,3,1,1,0,2,0,0,0,0,0,0,526743.5410000002,161266.1129999999,46.59864012457231,6.482582089727938,6.82
Dizy,1304,Dizy,5481,VD,2527850.129,1165195.878,fr,238,2,3,2,2,3,2,0,4,3,2,5,5,0,4,4,3,2,2,1,1,4,4,2,8,3,3,2,3,2,2,4,6,1,4,5,3,2,2,4,5,1,1,4,4,8,2,4,4,4,1,2,2,4,5,3,10,9,0,3,1,4,2,6,3,2,2,3,3,2,1,2,2,2,2,2,0,1,0,0,0,0,0,1,2,0,1,0,0,1,0,1,0,0,1,0,0,0,1,0,0,0,527850.1290000002,165195.87800000003,46.63410835748739,6.496406738387745,6.82
Bioley-Orjulaz,1042,Assens,5511,VD,2535713.134,1163473.728,fr,1711,14,18,20,16,21,22,19,18,23,29,12,19,19,21,22,16,17,17,21,23,19,14,19,18,16,15,13,20,14,26,21,28,28,31,32,34,28,25,31,22,17,25,28,26,28,20,24,30,21,25,20,28,34,29,24,28,29,22,25,22,24,17,21,25,21,17,14,18,14,16,15,13,11,8,11,12,14,9,13,8,10,12,5,7,5,3,5,3,2,3,3,1,1,2,0,0,1,1,0,0,0,535713.1340000001,163473.7279999999,46.61942043091256,6.599324669238298,7.16
St-Barthélemy VD,1040,Saint-Barthélemy (VD),5535,VD,2535944.331,1165188.209,fr,837,8,13,11,19,13,11,8,8,8,14,11,8,7,9,11,10,6,9,6,18,11,7,13,10,10,8,7,8,11,10,6,8,9,9,7,21,16,17,22,7,11,10,11,16,11,6,14,14,10,10,9,14,15,13,12,6,19,18,14,9,10,7,7,14,14,7,7,12,6,9,5,6,8,4,4,6,4,8,2,4,2,7,2,2,1,1,1,3,0,0,2,2,0,0,0,1,1,1,0,0,0,535944.3309999998,165188.20900000003,46.63486446160451,6.6021042774631375,7.78
Cheseaux-sur-Lausanne,1033,Cheseaux-sur-Lausanne,5582,VD,2535410.853,1159377.673,fr,4855,48,52,52,46,46,39,44,54,44,50,52,52,54,56,52,54,54,45,58,60,48,51,70,40,73,49,66,61,64,74,67,64,76,75,67,77,70,70,73,53,84,80,60,82,77,73,67,64,77,66,76,54,79,79,64,70,55,62,51,64,67,78,73,46,43,55,40,54,32,35,42,49,27,40,34,39,30,35,50,37,35,35,31,26,21,21,11,17,11,10,9,7,10,7,2,5,0,4,1,1,1,535410.8530000001,159377.67299999995,46.58254706465321,6.595952721953397,7.81
Romanel-sur-Morges,1122,Romanel-sur-Morges,5645,VD,2528719.561,1156450.906,fr,454,5,3,3,8,7,5,4,2,0,2,3,4,0,3,3,2,8,3,4,6,9,5,9,3,3,7,4,5,8,5,4,9,9,7,11,7,10,5,8,1,5,1,2,5,4,3,5,4,4,11,8,9,10,7,9,7,2,10,9,10,8,8,4,9,7,5,11,5,4,5,4,7,5,4,6,1,1,2,1,2,2,5,5,2,3,4,0,1,0,1,1,0,0,0,1,1,0,0,0,0,0,528719.5610000002,156450.90599999996,46.55554119019525,6.509112627470531,7.88
Cheseaux-sur-Lausanne,1033,Crissier,5583,VD,2534050.731,1158393.22,fr,10680,119,108,112,118,120,112,104,116,100,107,102,111,83,104,114,104,112,93,181,159,150,167,166,195,211,217,217,224,200,218,193,215,209,190,160,157,182,170,156,160,144,144,147,142,153,121,130,136,131,140,151,138,128,128,130,118,124,128,126,150,125,128,126,94,90,99,83,80,78,86,73,48,51,66,56,61,46,57,49,56,44,45,51,44,27,30,29,18,12,20,19,17,7,3,6,1,1,3,4,0,2,534050.7310000001,158393.21999999997,46.573559122448366,6.578349643935455,8.1
La Sarraz,1315,La Sarraz,5498,VD,2528668.649,1166948.887,fr,2618,24,28,10,36,30,27,28,32,21,32,31,30,43,38,37,31,37,32,38,35,30,24,27,43,22,28,20,30,33,35,26,29,29,32,30,28,34,36,43,29,22,40,37,45,57,35,53,53,47,32,53,42,35,36,30,47,40,33,46,35,31,39,29,31,8,25,19,23,27,35,21,21,21,18,18,19,20,20,16,16,14,9,20,11,13,7,6,8,6,5,3,4,4,0,0,0,2,1,1,0,1,528668.6490000002,166948.8870000001,46.6499644095687,6.50682322318422,8.24
Bremblens,1121,Bremblens,5622,VD,2529592.902,1155845.363,fr,615,3,7,4,8,7,5,9,6,7,4,15,3,7,9,10,11,9,7,7,8,6,5,7,9,10,11,3,9,3,3,5,3,8,7,6,8,8,17,10,5,5,13,7,15,9,10,6,8,10,14,8,15,14,8,10,10,8,10,8,6,12,6,3,9,9,6,4,5,6,3,6,6,7,11,2,6,3,3,1,1,3,1,1,3,2,0,3,2,1,1,1,1,1,0,0,2,1,0,0,0,0,529592.9019999998,155845.3629999999,46.55018681864038,6.520592656321668,8.46
Etagnières,1037,Etagnières,5521,VD,2536575.661,1161412.28,fr,1189,12,12,13,10,18,11,10,5,11,11,17,11,16,14,12,18,19,18,15,16,16,13,12,19,19,13,11,11,14,6,12,12,14,19,22,17,16,17,14,20,8,9,18,15,19,24,21,18,19,21,31,19,16,13,20,17,17,19,13,24,20,23,12,14,10,16,6,11,8,15,9,7,11,4,11,11,3,7,4,8,10,4,2,4,7,3,2,6,5,4,4,0,0,1,0,0,0,0,0,0,0,536575.6609999998,161412.28000000003,46.60095999092295,6.6108686415768725,8.46
Oulens-sous-Echallens,1377,Oulens-sous-Echallens,5529,VD,2533648.442,1166688.281,fr,607,3,5,4,4,1,7,6,11,9,10,11,4,9,10,4,11,5,9,5,14,7,3,4,7,4,4,4,5,3,5,6,12,11,14,12,7,11,7,9,5,4,9,9,10,10,12,6,14,10,9,20,8,9,12,11,10,4,9,7,10,9,11,5,4,6,3,5,8,4,4,0,6,7,6,7,5,5,7,5,8,2,2,4,5,0,0,0,1,0,2,0,0,0,0,0,1,0,0,0,0,0,533648.4419999998,166688.28099999996,46.648133534160515,6.571907226838767,8.48
Cheseaux-sur-Lausanne,1033,Lausanne,5586,VD,2535876.049,1158669.567,fr,145037,1311,1400,1361,1352,1402,1377,1397,1395,1371,1334,1379,1333,1306,1308,1334,1323,1369,1403,1740,1745,1791,1786,1934,2192,2187,2378,2589,2729,2765,2986,2922,2855,2846,2939,2776,2702,2657,2500,2426,2418,2327,2188,2298,2115,2167,2081,2098,2008,1877,1956,1886,1863,1928,1819,1829,1677,1671,1641,1687,1674,1584,1487,1444,1280,1258,1163,1229,1079,976,964,914,927,887,818,865,791,840,853,807,768,746,735,649,615,562,505,441,396,418,368,292,265,249,181,172,113,90,61,50,35,52,535876.0490000001,158669.56700000004,46.576222370562306,6.602120075777074,8.55
Crissier,1023,Crissier,5583,VD,2533965.759,1156364.41,fr,10680,119,108,112,118,120,112,104,116,100,107,102,111,83,104,114,104,112,93,181,159,150,167,166,195,211,217,217,224,200,218,193,215,209,190,160,157,182,170,156,160,144,144,147,142,153,121,130,136,131,140,151,138,128,128,130,118,124,128,126,150,125,128,126,94,90,99,83,80,78,86,73,48,51,66,56,61,46,57,49,56,44,45,51,44,27,30,29,18,12,20,19,17,7,3,6,1,1,3,4,0,2,533965.7590000001,156364.40999999992,46.5553015011167,6.577531701570173,8.59
Eclépens,1312,Eclépens,5482,VD,2531185.864,1167155.368,fr,1211,15,13,8,19,10,16,19,10,26,12,20,14,14,16,9,11,10,13,16,15,9,10,15,12,10,13,15,8,12,15,15,20,22,15,18,26,25,18,18,18,23,19,11,23,22,13,18,9,22,15,11,20,16,17,18,17,19,13,15,22,16,14,13,18,12,11,12,7,7,13,19,8,6,9,10,6,12,8,6,8,5,7,7,2,2,5,2,5,3,3,3,2,2,2,2,0,1,0,0,0,0,531185.8640000001,167155.36800000002,46.652085788326374,6.539672206548479,8.83
La Chaux (Cossonay),1308,La Chaux (Cossonay),5474,VD,2525584.052,1163728.05,fr,436,2,4,6,5,1,4,4,7,6,6,1,13,2,7,8,7,4,6,5,6,3,7,4,6,3,6,2,2,0,4,3,4,1,9,8,9,5,7,7,3,6,2,5,5,3,9,9,6,6,7,8,8,9,5,13,8,4,7,5,7,5,5,4,4,2,6,2,8,7,8,4,9,3,2,2,2,4,3,2,4,3,7,3,2,1,2,1,0,0,1,0,0,0,0,0,0,0,0,0,1,0,525584.0520000001,163728.05000000005,46.62065687998229,6.4670535695472156,8.88
Chavannes-le-Veyron,1148,La Chaux (Cossonay),5474,VD,2524916.69,1162433.044,fr,436,2,4,6,5,1,4,4,7,6,6,1,13,2,7,8,7,4,6,5,6,3,7,4,6,3,6,2,2,0,4,3,4,1,9,8,9,5,7,7,3,6,2,5,5,3,9,9,6,6,7,8,8,9,5,13,8,4,7,5,7,5,5,4,4,2,6,2,8,7,8,4,9,3,2,2,2,4,3,2,4,3,7,3,2,1,2,1,0,0,1,0,0,0,0,0,0,0,0,0,1,0,524916.69,162433.044,46.608933833686606,6.4585524868690465,9.05
Grancy,1117,Grancy,5485,VD,2525036.362,1160758.999,fr,540,5,6,12,7,13,11,6,10,5,5,10,7,2,5,5,9,6,4,5,5,5,5,6,5,9,3,8,3,12,1,6,6,12,7,10,5,7,12,15,5,9,10,5,8,7,7,10,7,4,11,7,10,4,7,6,6,7,5,8,7,5,9,7,8,8,10,7,3,1,5,4,2,4,2,4,2,1,4,4,3,2,4,2,4,2,4,2,0,0,0,0,0,0,1,0,0,0,0,0,0,1,525036.3620000002,160758.99900000007,46.5938894496989,6.460386844871048,9.16
Romanel-sur-Lausanne,1032,Lausanne,5586,VD,2536570.964,1158065.883,fr,145037,1311,1400,1361,1352,1402,1377,1397,1395,1371,1334,1379,1333,1306,1308,1334,1323,1369,1403,1740,1745,1791,1786,1934,2192,2187,2378,2589,2729,2765,2986,2922,2855,2846,2939,2776,2702,2657,2500,2426,2418,2327,2188,2298,2115,2167,2081,2098,2008,1877,1956,1886,1863,1928,1819,1829,1677,1671,1641,1687,1674,1584,1487,1444,1280,1258,1163,1229,1079,976,964,914,927,887,818,865,791,840,853,807,768,746,735,649,615,562,505,441,396,418,368,292,265,249,181,172,113,90,61,50,35,52,536570.9640000002,158065.8829999999,46.570858447700125,6.611267808886749,9.17
Vullierens,1115,Vullierens,5654,VD,2526410.587,1158739.25,fr,548,7,5,5,9,4,5,8,2,5,7,9,7,3,10,6,8,5,4,7,4,5,5,5,4,6,5,0,4,5,4,7,6,8,10,9,9,9,8,10,5,12,12,11,5,8,6,7,5,9,10,5,3,8,10,4,7,10,7,9,11,8,7,10,6,10,8,11,7,7,6,0,3,5,4,8,7,3,6,5,3,6,1,0,3,1,0,1,0,2,1,4,1,0,0,0,1,0,0,0,0,0,526410.5869999998,158739.25,46.57587467057538,6.478640638559198,9.23
Chevilly,1316,Chevilly,5476,VD,2526008.023,1166231.347,fr,346,3,4,3,4,4,1,3,2,6,2,3,8,5,10,7,4,6,0,6,3,7,3,4,4,1,4,1,4,4,10,4,2,7,6,6,4,2,1,2,4,2,12,9,3,7,1,5,9,6,9,12,8,4,8,3,2,1,8,3,9,7,4,3,2,5,3,3,1,0,0,4,1,4,1,6,1,2,2,1,1,0,2,2,2,1,1,0,1,0,0,0,0,0,0,0,0,1,0,0,0,0,526008.023,166231.34700000007,46.643220786381825,6.472185901860907,9.38
Bussigny,1030,Bussigny,5624,VD,2531648.941,1156262.36,fr,11667,142,143,153,152,150,156,140,142,140,119,120,132,126,115,134,108,114,112,135,128,98,119,132,137,178,205,222,228,220,237,231,221,242,228,234,228,187,208,179,168,178,177,174,159,178,162,167,159,151,170,135,139,138,145,147,142,140,127,142,126,153,110,112,105,104,84,75,98,80,87,73,61,60,65,66,54,78,75,76,61,53,36,50,45,30,24,24,21,16,16,12,13,11,8,4,4,0,2,2,0,0,531648.9410000001,156262.3600000001,46.554150891629526,6.547337419352708,9.67
Echandens,1026,Echandens,5633,VD,2530844.93,1154841.002,fr,3004,24,21,24,29,23,25,24,25,22,19,20,26,24,25,28,27,23,39,70,99,95,69,85,52,54,59,35,38,38,34,26,23,40,39,33,41,32,32,33,36,23,29,31,31,40,33,39,37,38,30,42,45,36,49,36,31,43,50,26,32,38,34,26,18,26,33,39,23,32,20,27,26,22,27,17,38,30,30,21,29,26,23,29,19,17,12,9,16,11,10,6,11,5,5,5,4,0,4,1,1,2,530844.9300000002,154841.0020000001,46.54128315926058,6.537066954622856,9.7
Morrens VD,1054,Morrens (VD),5527,VD,2537847.718,1160371.88,fr,1153,8,11,12,8,13,22,18,21,21,19,12,10,14,12,9,9,12,11,16,11,11,12,11,8,15,8,10,6,11,12,15,11,11,17,20,17,21,21,19,20,20,11,17,19,16,24,17,21,12,5,11,13,12,16,15,17,17,10,23,19,11,16,17,16,17,11,10,12,7,8,8,14,12,7,9,12,9,16,9,12,9,7,4,3,4,8,2,6,5,4,3,3,0,1,0,0,1,0,0,0,0,537847.7179999999,160371.8799999999,46.59172097213943,6.627609738311258,9.71
Assens,1042,Assens,5511,VD,2537813.569,1163070.919,fr,1711,14,18,20,16,21,22,19,18,23,29,12,19,19,21,22,16,17,17,21,23,19,14,19,18,16,15,13,20,14,26,21,28,28,31,32,34,28,25,31,22,17,25,28,26,28,20,24,30,21,25,20,28,34,29,24,28,29,22,25,22,24,17,21,25,21,17,14,18,14,16,15,13,11,8,11,12,14,9,13,8,10,12,5,7,5,3,5,3,2,3,3,1,1,2,0,0,1,1,0,0,0,537813.5690000001,163070.919,46.61599588600327,6.626799804907448,10.2
Bavois,1372,Orny,5493,VD,2531978.444,1168497.096,fr,497,5,9,6,7,4,7,9,7,3,4,4,5,5,8,2,5,6,4,7,5,8,2,10,11,5,5,5,8,11,11,9,10,5,8,6,6,5,10,8,2,11,3,8,5,5,7,6,6,5,5,7,11,8,14,10,3,8,7,9,12,6,3,5,8,3,4,2,3,2,2,4,5,4,2,2,1,3,2,3,1,2,2,2,0,2,1,4,2,2,1,1,0,1,1,0,2,0,0,0,1,1,531978.4440000001,168497.0959999999,46.664235765671805,6.549826790140194,10.31
Chevilly,1316,La Chaux (Cossonay),5474,VD,2525731.114,1165247.253,fr,436,2,4,6,5,1,4,4,7,6,6,1,13,2,7,8,7,4,6,5,6,3,7,4,6,3,6,2,2,0,4,3,4,1,9,8,9,5,7,7,3,6,2,5,5,3,9,9,6,6,7,8,8,9,5,13,8,4,7,5,7,5,5,4,4,2,6,2,8,7,8,4,9,3,2,2,2,4,3,2,4,3,7,3,2,1,2,1,0,0,1,0,0,0,0,0,0,0,0,0,1,0,525731.1140000001,165247.25300000003,46.63433826881359,6.4687282761728255,10.34
Eclagnens,1376,Goumoëns,5541,VD,2535299.798,1166615.151,fr,1211,9,10,10,18,14,16,22,13,16,23,22,34,16,19,23,20,14,17,12,11,12,14,8,11,8,9,6,10,6,3,11,16,15,17,20,11,19,21,23,11,19,18,6,20,28,26,24,27,18,24,23,14,20,22,8,12,10,14,15,8,13,11,8,5,13,9,15,16,14,14,11,8,10,5,8,9,5,11,7,6,9,9,6,4,4,5,5,2,6,1,4,5,3,1,1,1,0,0,1,0,0,535299.798,166615.15100000007,46.64763773105894,6.593486974679862,10.34
Chavannes-le-Veyron,1148,Chavannes-le-Veyron,5475,VD,2524012.725,1162380.966,fr,160,3,0,3,5,2,4,2,3,3,1,4,3,3,2,2,2,0,1,2,0,0,1,0,0,2,0,1,0,2,2,0,3,6,2,3,3,2,2,4,3,1,1,8,0,3,4,3,0,1,4,3,0,1,1,2,3,0,3,3,1,3,3,2,0,2,0,3,2,4,0,3,2,1,3,1,3,1,1,2,0,1,0,0,0,0,0,0,0,0,0,0,0,0,0,0,0,0,0,0,0,0,524012.7250000001,162380.96600000001,46.60836324420757,6.446762612510344,10.4
Crissier,1023,Lausanne,5586,VD,2534771.115,1156568.319,fr,145037,1311,1400,1361,1352,1402,1377,1397,1395,1371,1334,1379,1333,1306,1308,1334,1323,1369,1403,1740,1745,1791,1786,1934,2192,2187,2378,2589,2729,2765,2986,2922,2855,2846,2939,2776,2702,2657,2500,2426,2418,2327,2188,2298,2115,2167,2081,2098,2008,1877,1956,1886,1863,1928,1819,1829,1677,1671,1641,1687,1674,1584,1487,1444,1280,1258,1163,1229,1079,976,964,914,927,887,818,865,791,840,853,807,768,746,735,649,615,562,505,441,396,418,368,292,265,249,181,172,113,90,61,50,35,52,534771.1150000002,156568.3189999999,46.55721467479622,6.58800411814188,10.44
Jouxtens-Mézery,1008,Jouxtens-Mézery,5585,VD,2535345.038,1156097.506,fr,1482,7,16,7,13,10,15,17,19,15,21,16,25,13,12,23,16,17,17,20,16,17,17,24,21,21,13,16,26,10,9,7,9,8,9,20,13,9,15,9,26,17,23,24,21,19,21,21,14,22,26,15,20,17,15,24,19,28,25,17,24,23,23,19,25,17,21,16,15,16,16,18,15,23,14,15,18,18,14,17,11,23,12,10,5,11,7,7,4,1,4,4,4,3,0,4,1,2,0,0,0,0,535345.0380000002,156097.50600000005,46.55303538608245,6.595553877393277,10.58
Ecublens VD,1024,Ecublens (VD),5635,VD,2532595.64,1153498.509,fr,13391,103,118,120,128,133,116,144,109,141,105,125,148,125,115,132,132,125,124,265,322,317,347,287,323,300,251,221,207,235,214,196,185,192,186,158,192,171,185,185,167,179,152,166,157,168,176,163,187,137,167,177,157,168,160,140,147,147,148,137,182,151,175,147,114,124,130,107,111,101,87,96,99,96,101,96,91,84,77,86,87,94,62,74,64,56,56,30,37,31,28,29,19,18,13,16,9,11,5,4,3,8,532595.6400000001,153498.50900000008,46.529386004362586,6.560084837365901,10.6
Renens VD,1020,Renens (VD),5591,VD,2534863.381,1154258.261,fr,21568,175,167,215,201,206,219,195,220,202,197,204,187,214,234,219,218,206,201,343,357,341,323,349,404,427,434,407,394,371,429,350,366,356,349,323,318,342,303,307,294,307,275,268,288,271,285,271,330,289,284,306,253,298,284,297,270,274,260,274,278,273,250,233,229,231,189,182,162,141,142,148,141,124,129,135,135,136,127,131,137,109,106,99,84,66,65,58,66,63,43,53,32,31,18,20,15,10,6,5,10,5,534863.381,154258.26099999994,46.536444536423446,6.589533189648818,10.62
St-Saphorin-sur-Morges,1113,Echichens,5634,VD,2527266.018,1155245.039,fr,3218,35,32,34,36,43,44,33,40,43,41,41,45,52,24,43,42,33,29,30,38,23,37,30,31,39,28,24,31,28,31,27,32,44,34,51,35,52,50,48,54,44,39,41,53,41,52,32,41,43,53,56,49,44,47,45,40,47,45,47,45,40,54,42,41,35,31,38,28,32,24,29,27,29,16,20,21,18,14,26,22,17,17,23,18,11,15,14,17,15,13,20,9,8,10,9,7,5,4,3,1,4,527266.0180000002,155245.0390000001,46.544538058853796,6.490349727595757,10.75
Colombier VD,1114,Echichens,5634,VD,2525739.908,1156511.194,fr,3218,35,32,34,36,43,44,33,40,43,41,41,45,52,24,43,42,33,29,30,38,23,37,30,31,39,28,24,31,28,31,27,32,44,34,51,35,52,50,48,54,44,39,41,53,41,52,32,41,43,53,56,49,44,47,45,40,47,45,47,45,40,54,42,41,35,31,38,28,32,24,29,27,29,16,20,21,18,14,26,22,17,17,23,18,11,15,14,17,15,13,20,9,8,10,9,7,5,4,3,1,4,525739.9079999998,156511.1939999999,46.55575939669006,6.470250994302487,10.88
Lonay,1027,Lonay,5638,VD,2529443.444,1153628.322,fr,2733,24,18,21,18,17,26,26,29,24,23,34,25,22,21,29,24,34,33,43,34,28,31,27,33,34,42,39,28,36,31,28,34,36,38,37,24,29,41,34,34,26,33,46,35,39,36,29,28,33,41,43,28,38,41,38,42,47,42,44,43,43,38,37,27,35,32,26,24,34,26,21,25,21,21,17,19,22,23,26,15,21,24,11,19,17,18,25,14,15,13,19,10,11,15,2,8,6,4,1,1,6,529443.4440000001,153628.32199999993,46.530228839680866,6.518982817370131,11.07
Prilly,1008,Prilly,5589,VD,2535977.633,1154306.959,fr,12766,110,106,133,102,125,117,127,115,112,125,122,109,114,125,125,135,121,125,131,155,146,143,155,189,206,211,229,211,216,227,240,207,224,229,216,171,208,212,176,187,183,189,195,185,194,211,187,180,163,168,172,184,164,167,161,191,155,155,157,155,158,148,131,112,102,109,104,106,95,92,73,86,78,90,102,85,94,76,90,80,93,69,82,83,80,61,70,46,45,42,28,24,21,14,9,13,12,3,4,1,2,535977.6329999999,154306.95900000003,46.53699008961317,6.604050421979068,11.17
Cottens VD,1116,Hautemorges,5656,VD,2524459.256,1158331.598,fr,4387,39,55,40,63,59,58,63,48,62,46,48,50,61,56,59,43,46,51,43,44,52,47,43,65,50,48,46,49,36,54,44,39,49,57,56,61,81,62,68,65,62,61,62,60,74,63,50,83,58,62,65,53,76,59,57,58,64,54,61,67,54,56,48,53,52,33,50,51,33,45,33,39,41,30,27,42,28,39,43,23,32,22,22,20,15,12,13,13,11,11,6,6,7,3,7,0,6,3,1,1,1,524459.256,158331.598,46.57199034110579,6.453254363261909,11.29
Echallens,1040,Echallens,5518,VD,2538478.57,1165500.088,fr,6722,65,67,79,88,64,88,69,77,75,85,85,84,68,66,67,85,76,84,72,91,92,90,87,101,95,102,96,74,101,109,95,68,114,96,84,111,86,98,110,87,91,81,91,76,94,75,98,94,79,103,88,98,110,83,100,85,98,98,103,91,82,77,83,72,79,61,70,49,51,52,50,50,41,56,47,47,46,51,54,40,54,33,33,24,23,16,26,16,16,20,4,10,4,7,0,1,4,2,2,1,1,538478.5699999998,165500.088,46.63790800786691,6.635156016830018,11.29
Cugy VD,1053,Cugy (VD),5516,VD,2539016.933,1159148.829,fr,2790,30,22,32,16,24,34,28,24,29,38,32,30,35,45,44,37,47,39,43,40,40,45,31,32,38,29,40,30,33,31,26,26,26,34,30,28,37,36,31,33,35,38,38,43,37,38,29,38,48,50,48,47,32,47,46,50,54,34,51,48,35,31,39,24,26,31,20,20,16,18,22,21,18,25,18,13,25,21,21,27,13,22,19,12,10,9,13,6,12,8,6,2,4,0,5,1,0,0,0,0,1,539016.9330000002,159148.8289999999,46.58082714989919,6.643027609207595,11.3
Chavannes-près-Renens,1022,Chavannes-près-Renens,5627,VD,2533948.04,1153650.357,fr,9771,80,97,76,91,107,94,114,91,96,89,83,111,82,85,98,97,81,114,314,352,282,285,352,255,238,210,210,176,229,220,181,164,185,165,165,152,112,134,141,110,121,126,126,146,136,114,123,110,110,116,96,94,105,91,91,98,95,92,89,79,72,77,68,66,59,63,43,53,46,43,48,41,50,34,45,40,51,52,37,35,38,40,26,27,33,16,12,10,23,9,12,3,11,4,3,1,0,2,1,0,1,533948.04,153650.35700000008,46.53088669900809,6.577688941065733,11.43
Denges,1026,Denges,5632,VD,2530995.326,1152695.37,fr,1837,18,15,24,19,26,18,21,14,16,13,18,15,18,16,15,16,19,14,20,22,36,28,33,31,32,27,26,29,27,22,22,39,45,33,33,22,19,24,21,29,24,40,18,28,21,24,19,31,30,30,31,30,26,19,29,31,37,39,24,23,18,30,24,25,20,21,17,12,11,14,15,9,12,13,13,11,9,6,12,4,10,4,4,6,2,6,7,1,2,1,1,1,2,1,1,0,2,0,0,0,1,530995.3259999999,152695.3700000001,46.52199870478876,6.5393480344387065,11.56
Cuarnens,1148,Cuarnens,5479,VD,2523044.107,1164996.26,fr,561,10,5,13,10,9,10,9,7,8,5,8,11,5,9,7,6,3,5,2,5,4,4,4,6,9,6,5,6,10,5,4,12,7,5,7,11,14,4,10,8,8,14,6,8,10,9,6,5,5,8,10,6,8,9,7,11,4,8,6,6,6,7,5,5,6,6,14,6,4,6,4,5,6,5,2,5,4,3,1,1,1,2,2,2,0,2,2,0,2,0,0,1,2,0,1,0,0,1,0,0,0,523044.10699999984,164996.26,46.6317765268139,6.433683274370962,11.81
Lausanne,1015,Saint-Sulpice (VD),5648,VD,2534258.036,1152326.683,fr,5157,52,49,41,48,48,53,45,66,46,55,55,48,41,44,45,44,51,46,114,137,153,112,127,112,88,65,72,74,67,68,73,62,79,58,63,85,71,66,72,72,75,65,83,78,84,74,77,58,70,76,74,68,60,60,50,51,61,47,54,36,56,51,34,43,40,43,33,37,43,34,42,44,36,38,28,30,39,38,41,35,45,45,26,36,23,27,13,18,14,11,11,8,7,9,4,2,2,0,1,0,2,534258.0359999998,152326.68299999996,46.51901068191359,6.581917583590369,11.91
Bretigny-sur-Morrens,1053,Bretigny-sur-Morrens,5515,VD,2539311.82,1161124.031,fr,898,9,8,12,9,10,19,12,9,10,17,6,7,15,8,12,17,9,13,8,10,6,12,10,7,8,9,11,14,8,7,11,11,13,14,15,16,14,13,14,12,11,10,18,12,18,16,20,11,17,16,17,13,7,16,12,16,8,11,10,14,17,11,15,7,11,21,3,8,9,6,5,4,3,2,0,2,8,7,10,9,0,3,5,3,1,2,1,2,2,0,1,1,0,0,0,1,0,0,0,0,0,539311.8199999998,161124.03099999996,46.59862114814758,6.646614481641649,11.95
Prilly,1008,Renens (VD),5591,VD,2535633.311,1153352.766,fr,21568,175,167,215,201,206,219,195,220,202,197,204,187,214,234,219,218,206,201,343,357,341,323,349,404,427,434,407,394,371,429,350,366,356,349,323,318,342,303,307,294,307,275,268,288,271,285,271,330,289,284,306,253,298,284,297,270,274,260,274,278,273,250,233,229,231,189,182,162,141,142,148,141,124,129,135,135,136,127,131,137,109,106,99,84,66,65,58,66,63,43,53,32,31,18,20,15,10,6,5,10,5,535633.3110000002,153352.76600000006,46.52837401752096,6.599695206857955,12.13
Orny,1317,Orny,5493,VD,2530752.897,1169330.916,fr,497,5,9,6,7,4,7,9,7,3,4,4,5,5,8,2,5,6,4,7,5,8,2,10,11,5,5,5,8,11,11,9,10,5,8,6,6,5,10,8,2,11,3,8,5,5,7,6,6,5,5,7,11,8,14,10,3,8,7,9,12,6,3,5,8,3,4,2,3,2,2,4,5,4,2,2,1,3,2,3,1,2,2,2,0,2,1,4,2,2,1,1,0,1,1,0,2,0,0,0,1,1,530752.8969999999,169330.91599999997,46.671609946033186,6.533688827040571,12.19
Lausanne,1015,Chavannes-près-Renens,5627,VD,2534441.521,1152812.451,fr,9771,80,97,76,91,107,94,114,91,96,89,83,111,82,85,98,97,81,114,314,352,282,285,352,255,238,210,210,176,229,220,181,164,185,165,165,152,112,134,141,110,121,126,126,146,136,114,123,110,110,116,96,94,105,91,91,98,95,92,89,79,72,77,68,66,59,63,43,53,46,43,48,41,50,34,45,40,51,52,37,35,38,40,26,27,33,16,12,10,23,9,12,3,11,4,3,1,0,2,1,0,1,534441.5210000002,152812.45099999988,46.52339819067112,6.584239566030029,12.33
Sévery,1141,Hautemorges,5656,VD,2523621.903,1158401.052,fr,4387,39,55,40,63,59,58,63,48,62,46,48,50,61,56,59,43,46,51,43,44,52,47,43,65,50,48,46,49,36,54,44,39,49,57,56,61,81,62,68,65,62,61,62,60,74,63,50,83,58,62,65,53,76,59,57,58,64,54,61,67,54,56,48,53,52,33,50,51,33,45,33,39,41,30,27,42,28,39,43,23,32,22,22,20,15,12,13,13,11,11,6,6,7,3,7,0,6,3,1,1,1,523621.90299999993,158401.0519999999,46.572519975285765,6.44232127898679,12.44
Goumoens-la-Ville,1376,Goumoëns,5541,VD,2536731.584,1167779.875,fr,1211,9,10,10,18,14,16,22,13,16,23,22,34,16,19,23,20,14,17,12,11,12,14,8,11,8,9,6,10,6,3,11,16,15,17,20,11,19,21,23,11,19,18,6,20,28,26,24,27,18,24,23,14,20,22,8,12,10,14,15,8,13,11,8,5,13,9,15,16,14,14,11,8,10,5,8,9,5,11,7,6,9,9,6,4,4,5,5,2,6,1,4,5,3,1,1,1,0,0,1,0,0,536731.5839999998,167779.875,46.658251623838225,6.6120281016668265,12.49
Moiry VD,1148,Moiry,5490,VD,2524559.282,1167345.72,fr,299,1,4,2,3,3,7,2,2,4,2,3,5,5,6,0,5,1,3,1,1,5,4,3,2,3,7,4,1,1,4,2,4,4,1,1,6,4,3,4,4,2,2,3,5,8,4,4,5,3,3,3,6,3,4,4,8,4,2,2,1,5,4,9,8,3,6,4,4,4,3,1,5,2,3,4,4,5,5,3,4,2,1,1,1,1,0,2,0,1,0,0,1,0,0,0,0,0,0,0,0,0,524559.2820000001,167345.71999999997,46.65308233591052,6.453082243456252,12.63
Ferreyres,1313,Ferreyres,5483,VD,2526698.035,1168085.353,fr,309,3,1,2,4,4,1,3,5,4,2,6,4,5,5,5,2,5,5,4,4,3,3,3,3,1,5,0,1,1,4,1,3,6,6,4,4,4,0,2,6,0,3,7,1,5,1,3,4,6,3,7,9,9,7,5,5,6,4,7,7,2,4,5,4,5,4,5,4,4,0,4,4,1,4,1,2,2,5,7,1,2,1,2,1,2,0,0,0,0,0,0,0,0,0,0,0,0,0,0,0,0,526698.0350000001,168085.3529999999,46.65997340190517,6.480902087108954,12.65
Goumoens-le-Jux,1376,Goumoëns,5541,VD,2534818.7,1168741.043,fr,1211,9,10,10,18,14,16,22,13,16,23,22,34,16,19,23,20,14,17,12,11,12,14,8,11,8,9,6,10,6,3,11,16,15,17,20,11,19,21,23,11,19,18,6,20,28,26,24,27,18,24,23,14,20,22,8,12,10,14,15,8,13,11,8,5,13,9,15,16,14,14,11,8,10,5,8,9,5,11,7,6,9,9,6,4,4,5,5,2,6,1,4,5,3,1,1,1,0,0,1,0,0,534818.7000000002,168741.04300000006,46.666713364097774,6.586901694373974,12.76
Cugy VD,1053,Lausanne,5586,VD,2540164.171,1159743.816,fr,145037,1311,1400,1361,1352,1402,1377,1397,1395,1371,1334,1379,1333,1306,1308,1334,1323,1369,1403,1740,1745,1791,1786,1934,2192,2187,2378,2589,2729,2765,2986,2922,2855,2846,2939,2776,2702,2657,2500,2426,2418,2327,2188,2298,2115,2167,2081,2098,2008,1877,1956,1886,1863,1928,1819,1829,1677,1671,1641,1687,1674,1584,1487,1444,1280,1258,1163,1229,1079,976,964,914,927,887,818,865,791,840,853,807,768,746,735,649,615,562,505,441,396,418,368,292,265,249,181,172,113,90,61,50,35,52,540164.1710000001,159743.8160000001,46.586282766675055,6.657916708168659,12.95
Vaux-sur-Morges,1126,Vaux-sur-Morges,5650,VD,2525220.587,1154506.956,fr,185,2,3,0,1,2,0,4,1,6,1,1,2,2,0,4,2,1,2,2,5,2,2,2,4,6,4,2,2,2,1,2,2,1,3,3,2,2,1,2,2,3,1,0,2,3,1,6,0,1,2,1,1,2,2,1,4,6,2,1,3,3,4,4,0,3,2,1,3,1,2,2,2,1,1,2,2,4,1,3,1,1,4,1,2,1,0,1,2,0,1,0,0,0,0,0,0,0,0,0,0,0,525220.5869999998,154506.956,46.537673635392196,6.463804180998205,12.96
Lausanne,1015,Ecublens (VD),5635,VD,2533335.41,1152509.016,fr,13391,103,118,120,128,133,116,144,109,141,105,125,148,125,115,132,132,125,124,265,322,317,347,287,323,300,251,221,207,235,214,196,185,192,186,158,192,171,185,185,167,179,152,166,157,168,176,163,187,137,167,177,157,168,160,140,147,147,148,137,182,151,175,147,114,124,130,107,111,101,87,96,99,96,101,96,91,84,77,86,87,94,62,74,64,56,56,30,37,31,28,29,19,18,13,16,9,11,5,4,3,8,533335.4100000001,152509.01600000006,46.5205595467448,6.569869019507113,13.07
Clarmont,1127,Clarmont,5629,VD,2524144.797,1155747.896,fr,228,5,1,4,1,2,4,1,2,6,1,2,2,4,0,3,2,3,6,2,2,2,1,4,2,1,4,3,3,0,5,4,1,3,4,3,2,6,4,1,8,4,3,7,1,3,5,3,3,6,4,7,7,2,3,3,3,0,4,2,1,2,3,1,3,2,3,1,0,0,5,2,2,2,3,1,1,1,0,2,1,0,0,1,0,0,1,0,3,0,0,1,1,1,0,0,0,0,0,0,0,0,524144.7969999998,155747.89599999995,46.54871467953578,6.449577657153244,13.14
Villars-le-Terroir,1040,Villars-le-Terroir,5537,VD,2539170.77,1167748.553,fr,1307,14,7,14,15,14,15,19,30,15,17,23,17,21,12,14,16,10,13,16,16,19,14,17,13,14,18,15,17,11,10,18,14,21,17,26,18,18,20,23,21,10,18,25,28,18,18,26,30,21,16,15,12,16,17,14,20,19,18,11,15,18,14,14,14,16,18,9,11,11,12,9,5,9,9,11,14,5,8,7,5,6,4,7,5,9,3,4,3,1,6,6,2,0,1,0,0,0,0,1,1,0,539170.77,167748.55300000007,46.65819651445884,6.643898261215951,13.17
Bavois,1372,Bavois,5746,VD,2533197.208,1170320.514,fr,1041,9,12,13,5,10,18,7,11,13,13,16,14,11,7,8,7,10,9,16,9,12,7,10,12,16,18,16,18,9,17,18,11,14,15,23,13,10,28,16,21,21,12,16,24,24,6,16,12,6,16,15,11,22,17,22,13,20,13,20,14,13,21,9,10,13,12,9,9,7,11,10,11,9,5,4,6,4,5,3,5,5,4,3,2,4,1,0,1,1,1,0,0,0,0,1,0,0,0,0,0,0,533197.2080000001,170320.51399999997,46.68076039210798,6.565485459342522,13.24
Monnaz,1125,Echichens,5634,VD,2526437.42,1153783.545,fr,3218,35,32,34,36,43,44,33,40,43,41,41,45,52,24,43,42,33,29,30,38,23,37,30,31,39,28,24,31,28,31,27,32,44,34,51,35,52,50,48,54,44,39,41,53,41,52,32,41,43,53,56,49,44,47,45,40,47,45,47,45,40,54,42,41,35,31,38,28,32,24,29,27,29,16,20,21,18,14,26,22,17,17,23,18,11,15,14,17,15,13,20,9,8,10,9,7,5,4,3,1,4,526437.4199999999,153783.54499999993,46.53130145774155,6.4797805763344325,13.26
Lausanne,1007,Lausanne,5586,VD,2536441.65,1152102.321,fr,145037,1311,1400,1361,1352,1402,1377,1397,1395,1371,1334,1379,1333,1306,1308,1334,1323,1369,1403,1740,1745,1791,1786,1934,2192,2187,2378,2589,2729,2765,2986,2922,2855,2846,2939,2776,2702,2657,2500,2426,2418,2327,2188,2298,2115,2167,2081,2098,2008,1877,1956,1886,1863,1928,1819,1829,1677,1671,1641,1687,1674,1584,1487,1444,1280,1258,1163,1229,1079,976,964,914,927,887,818,865,791,840,853,807,768,746,735,649,615,562,505,441,396,418,368,292,265,249,181,172,113,90,61,50,35,52,536441.6499999999,152102.321,46.517203374791535,6.610402140833584,13.51
Lausanne,1018,Lausanne,5586,VD,2537864.88,1154485.085,fr,145037,1311,1400,1361,1352,1402,1377,1397,1395,1371,1334,1379,1333,1306,1308,1334,1323,1369,1403,1740,1745,1791,1786,1934,2192,2187,2378,2589,2729,2765,2986,2922,2855,2846,2939,2776,2702,2657,2500,2426,2418,2327,2188,2298,2115,2167,2081,2098,2008,1877,1956,1886,1863,1928,1819,1829,1677,1671,1641,1687,1674,1584,1487,1444,1280,1258,1163,1229,1079,976,964,914,927,887,818,865,791,840,853,807,768,746,735,649,615,562,505,441,396,418,368,292,265,249,181,172,113,90,61,50,35,52,537864.8799999999,154485.08499999996,46.53877021783369,6.628626556227086,13.64
Pompaples,1318,Pompaples,5497,VD,2529876.338,1170082.65,fr,930,9,6,8,14,22,11,13,11,23,12,14,8,12,14,14,9,23,8,9,8,16,8,12,9,11,11,11,16,9,15,9,11,10,16,9,10,11,10,9,10,24,15,15,19,18,14,10,12,8,16,15,18,9,20,12,12,15,13,8,16,11,5,10,9,4,10,8,4,7,9,5,4,9,8,7,4,9,4,4,2,4,8,5,1,2,0,2,3,2,4,3,0,0,0,0,1,1,0,0,0,1,529876.338,170082.6499999999,46.67828023237499,6.522119909215551,13.85
Poliez-le-Grand,1041,Montilliez,5540,VD,2540826.892,1165493.002,fr,1874,21,16,28,21,23,17,20,20,23,22,18,14,21,27,21,29,22,19,24,17,25,18,29,26,17,18,24,17,22,23,24,28,24,28,38,46,34,21,24,25,23,24,18,26,30,25,28,29,22,34,32,27,37,28,22,33,30,29,25,31,16,27,31,18,16,21,17,16,15,21,15,12,14,18,16,12,12,16,3,6,14,13,5,5,3,4,3,2,0,4,0,1,3,3,2,1,1,1,0,0,0,540826.892,165493.0020000001,46.638056396585256,6.665824414768733,13.9
St-Sulpice VD,1025,Saint-Sulpice (VD),5648,VD,2532338.943,1151711.505,fr,5157,52,49,41,48,48,53,45,66,46,55,55,48,41,44,45,44,51,46,114,137,153,112,127,112,88,65,72,74,67,68,73,62,79,58,63,85,71,66,72,72,75,65,83,78,84,74,77,58,70,76,74,68,60,60,50,51,61,47,54,36,56,51,34,43,40,43,33,37,43,34,42,44,36,38,28,30,39,38,41,35,45,45,26,36,23,27,13,18,14,11,11,8,7,9,4,2,2,0,1,0,2,532338.943,151711.5049999999,46.513285943489024,6.557000989843599,14.13
Reverolle,1128,Hautemorges,5656,VD,2523438.062,1155095.7,fr,4387,39,55,40,63,59,58,63,48,62,46,48,50,61,56,59,43,46,51,43,44,52,47,43,65,50,48,46,49,36,54,44,39,49,57,56,61,81,62,68,65,62,61,62,60,74,63,50,83,58,62,65,53,76,59,57,58,64,54,61,67,54,56,48,53,52,33,50,51,33,45,33,39,41,30,27,42,28,39,43,23,32,22,22,20,15,12,13,13,11,11,6,6,7,3,7,0,6,3,1,1,1,523438.0619999999,155095.69999999995,46.54276777399279,6.44047185819819,14.22
Mauraz,1148,Mauraz,5488,VD,2521698.41,1161792.211,fr,67,1,0,1,1,2,1,2,1,1,0,0,0,0,0,0,1,2,1,0,1,0,1,0,0,0,0,0,0,1,2,2,0,2,6,0,1,0,1,1,1,0,2,1,2,0,0,1,2,0,1,0,1,0,0,1,2,1,2,1,1,4,2,2,0,1,0,0,2,0,0,1,1,0,0,0,0,0,1,1,0,0,0,0,0,0,0,0,0,0,0,0,0,0,0,0,0,0,1,0,0,0,521698.41000000015,161792.2109999999,46.60280040175535,6.416656944704432,14.25
Villars-Bozon,1148,L'Isle,5486,VD,2521116.926,1162412.707,fr,1096,15,13,8,13,15,8,8,15,10,14,12,14,9,16,10,15,8,17,18,13,11,11,5,8,7,14,9,8,10,11,8,6,14,21,22,22,20,10,14,16,15,19,15,13,15,13,20,8,17,15,18,9,18,12,19,17,16,14,15,17,21,18,17,10,13,14,11,9,12,9,12,7,16,13,11,18,6,10,8,9,7,7,1,7,2,5,3,4,2,1,2,2,1,2,0,2,1,0,0,0,0,521116.926,162412.70699999994,46.60831326928204,6.408962111854229,14.27
Le Mont-sur-Lausanne,1052,Le Mont-sur-Lausanne,5587,VD,2538660.873,1156581.561,fr,9543,90,90,91,115,136,109,137,149,144,121,145,120,137,122,129,128,120,127,105,101,101,103,104,108,101,102,93,98,113,131,103,106,142,137,162,162,122,152,147,150,138,155,172,166,183,162,146,142,140,147,127,150,138,141,122,122,112,118,116,106,107,109,96,74,90,67,78,61,52,71,59,66,65,48,62,49,53,56,60,63,60,59,56,37,35,28,38,36,26,18,21,25,17,13,9,7,5,4,3,2,2,538660.8730000001,156581.561,46.55770170991907,6.638724033713739,14.3
Lausanne,1004,Lausanne,5586,VD,2537089.399,1153350.009,fr,145037,1311,1400,1361,1352,1402,1377,1397,1395,1371,1334,1379,1333,1306,1308,1334,1323,1369,1403,1740,1745,1791,1786,1934,2192,2187,2378,2589,2729,2765,2986,2922,2855,2846,2939,2776,2702,2657,2500,2426,2418,2327,2188,2298,2115,2167,2081,2098,2008,1877,1956,1886,1863,1928,1819,1829,1677,1671,1641,1687,1674,1584,1487,1444,1280,1258,1163,1229,1079,976,964,914,927,887,818,865,791,840,853,807,768,746,735,649,615,562,505,441,396,418,368,292,265,249,181,172,113,90,61,50,35,52,537089.3990000002,153350.00900000008,46.52848764325613,6.61867251793432,14.6
Romanel-sur-Lausanne,1032,Romanel-sur-Lausanne,5592,VD,2536311.553,1157295.708,fr,4325,56,44,70,60,52,42,54,39,36,51,44,42,38,31,49,34,44,46,46,41,40,57,53,47,63,73,47,75,80,57,76,79,77,93,82,80,88,75,74,56,55,42,52,47,44,56,55,55,55,63,53,56,58,60,71,44,57,45,55,48,58,48,63,37,36,32,37,38,38,28,40,26,38,27,33,42,38,36,37,42,23,18,20,20,19,16,11,10,8,7,7,7,5,8,3,1,2,3,0,0,1,536311.5529999998,157295.7080000001,46.56390601096754,6.607990638116825,14.61
Pampigny,1142,Hautemorges,5656,VD,2521658.735,1159765.222,fr,4387,39,55,40,63,59,58,63,48,62,46,48,50,61,56,59,43,46,51,43,44,52,47,43,65,50,48,46,49,36,54,44,39,49,57,56,61,81,62,68,65,62,61,62,60,74,63,50,83,58,62,65,53,76,59,57,58,64,54,61,67,54,56,48,53,52,33,50,51,33,45,33,39,41,30,27,42,28,39,43,23,32,22,22,20,15,12,13,13,11,11,6,6,7,3,7,0,6,3,1,1,1,521658.73499999987,159765.22200000007,46.58456337379006,6.416483778303483,14.72
Bottens,1041,Bottens,5514,VD,2540706.08,1162957.521,fr,1358,18,14,11,19,20,13,17,17,14,14,19,19,25,24,17,20,17,15,13,9,13,18,9,21,19,18,16,6,9,17,14,13,21,18,25,24,23,27,22,16,36,20,24,15,25,15,21,19,13,15,22,15,19,26,14,26,17,22,17,19,8,15,19,16,10,14,13,11,16,13,12,8,7,11,15,10,11,10,5,6,9,8,3,2,4,4,2,1,1,3,1,1,2,0,2,0,1,0,0,0,0,540706.0800000001,162957.52099999995,46.615238737821024,6.6645733154706015,14.84
Morges,1110,Morges,5642,VD,2527581.683,1151797.255,fr,17715,177,172,177,203,176,161,160,161,170,157,157,167,163,144,153,140,155,169,177,199,130,164,164,192,196,220,259,337,312,341,348,312,330,377,340,338,323,251,297,317,250,261,227,243,248,209,213,273,241,232,226,221,226,246,202,219,239,228,211,192,196,219,192,172,169,150,138,123,120,139,125,106,129,116,146,138,137,132,154,147,161,129,122,124,103,98,69,79,61,63,59,50,36,29,21,15,17,13,10,4,11,527581.6830000002,151797.2549999999,46.5135596505739,6.495005411218417,15.13
Lausanne,1003,Lausanne,5586,VD,2537956.365,1152398.708,fr,145037,1311,1400,1361,1352,1402,1377,1397,1395,1371,1334,1379,1333,1306,1308,1334,1323,1369,1403,1740,1745,1791,1786,1934,2192,2187,2378,2589,2729,2765,2986,2922,2855,2846,2939,2776,2702,2657,2500,2426,2418,2327,2188,2298,2115,2167,2081,2098,2008,1877,1956,1886,1863,1928,1819,1829,1677,1671,1641,1687,1674,1584,1487,1444,1280,1258,1163,1229,1079,976,964,914,927,887,818,865,791,840,853,807,768,746,735,649,615,562,505,441,396,418,368,292,265,249,181,172,113,90,61,50,35,52,537956.3650000002,152398.7080000001,46.52001148716917,6.6300993185137775,15.24
Sugnens,1043,Montilliez,5540,VD,2541473.229,1167338.135,fr,1874,21,16,28,21,23,17,20,20,23,22,18,14,21,27,21,29,22,19,24,17,25,18,29,26,17,18,24,17,22,23,24,28,24,28,38,46,34,21,24,25,23,24,18,26,30,25,28,29,22,34,32,27,37,28,22,33,30,29,25,31,16,27,31,18,16,21,17,16,15,21,15,12,14,18,16,12,12,16,3,6,14,13,5,5,3,4,3,2,0,4,0,1,3,3,2,1,1,1,0,0,0,541473.2289999998,167338.135,46.65471051567828,6.6740303769397755,15.27
Apples,1143,Hautemorges,5656,VD,2521780.335,1156532.625,fr,4387,39,55,40,63,59,58,63,48,62,46,48,50,61,56,59,43,46,51,43,44,52,47,43,65,50,48,46,49,36,54,44,39,49,57,56,61,81,62,68,65,62,61,62,60,74,63,50,83,58,62,65,53,76,59,57,58,64,54,61,67,54,56,48,53,52,33,50,51,33,45,33,39,41,30,27,42,28,39,43,23,32,22,22,20,15,12,13,13,11,11,6,6,7,3,7,0,6,3,1,1,1,521780.33499999996,156532.625,46.55550096884429,6.418618402892331,15.63
L'Isle,1148,L'Isle,5486,VD,2520520.127,1164020.755,fr,1096,15,13,8,13,15,8,8,15,10,14,12,14,9,16,10,15,8,17,18,13,11,11,5,8,7,14,9,8,10,11,8,6,14,21,22,22,20,10,14,16,15,19,15,13,15,13,20,8,17,15,18,9,18,12,19,17,16,14,15,17,21,18,17,10,13,14,11,9,12,9,12,7,16,13,11,18,6,10,8,9,7,7,1,7,2,5,3,4,2,1,2,2,1,2,0,2,1,0,0,0,0,520520.12699999986,164020.7549999999,46.62270659939756,6.400895313489805,15.7
Froideville,1055,Froideville,5523,VD,2542750.876,1160877.719,fr,2731,24,26,26,36,32,30,23,33,44,42,35,40,30,36,50,41,38,37,37,41,33,24,38,29,15,25,21,25,24,32,43,34,32,38,43,48,32,35,38,38,38,30,46,43,32,35,53,58,38,32,56,37,36,41,41,38,34,46,32,37,40,39,26,26,29,24,26,31,22,20,18,24,21,28,20,16,20,19,18,17,12,12,16,8,4,4,8,8,5,2,5,3,4,2,0,0,0,1,1,0,1,542750.8760000002,160877.71900000004,46.59670887024616,6.691524333127998,15.75
Lausanne,1011,Lausanne,5586,VD,2538935.872,1153097.696,fr,145037,1311,1400,1361,1352,1402,1377,1397,1395,1371,1334,1379,1333,1306,1308,1334,1323,1369,1403,1740,1745,1791,1786,1934,2192,2187,2378,2589,2729,2765,2986,2922,2855,2846,2939,2776,2702,2657,2500,2426,2418,2327,2188,2298,2115,2167,2081,2098,2008,1877,1956,1886,1863,1928,1819,1829,1677,1671,1641,1687,1674,1584,1487,1444,1280,1258,1163,1229,1079,976,964,914,927,887,818,865,791,840,853,807,768,746,735,649,615,562,505,441,396,418,368,292,265,249,181,172,113,90,61,50,35,52,538935.872,153097.696,46.526389035743954,6.64277075083436,15.97
La Praz,1148,La Praz,5758,VD,2522400.794,1169121.388,fr,207,0,3,3,2,2,0,2,2,4,2,3,4,3,2,2,3,1,2,2,2,0,2,1,1,2,3,0,5,0,4,0,3,2,2,4,4,3,0,10,5,2,2,1,4,1,4,3,2,3,3,2,2,1,2,5,4,6,5,5,4,3,3,1,2,2,2,3,2,3,3,5,6,3,0,2,2,0,1,0,1,3,0,1,0,0,0,2,1,0,0,0,0,0,0,0,0,0,0,0,0,0,522400.7940000002,169121.38800000004,46.66880677098639,6.424587168431062,16.03
Lausanne,1006,Lausanne,5586,VD,2538483.524,1151416.349,fr,145037,1311,1400,1361,1352,1402,1377,1397,1395,1371,1334,1379,1333,1306,1308,1334,1323,1369,1403,1740,1745,1791,1786,1934,2192,2187,2378,2589,2729,2765,2986,2922,2855,2846,2939,2776,2702,2657,2500,2426,2418,2327,2188,2298,2115,2167,2081,2098,2008,1877,1956,1886,1863,1928,1819,1829,1677,1671,1641,1687,1674,1584,1487,1444,1280,1258,1163,1229,1079,976,964,914,927,887,818,865,791,840,853,807,768,746,735,649,615,562,505,441,396,418,368,292,265,249,181,172,113,90,61,50,35,52,538483.5240000002,151416.34899999993,46.511223678489046,6.637099397502449,16.16
Lausanne,1010,Lausanne,5586,VD,2540185.345,1154170.262,fr,145037,1311,1400,1361,1352,1402,1377,1397,1395,1371,1334,1379,1333,1306,1308,1334,1323,1369,1403,1740,1745,1791,1786,1934,2192,2187,2378,2589,2729,2765,2986,2922,2855,2846,2939,2776,2702,2657,2500,2426,2418,2327,2188,2298,2115,2167,2081,2098,2008,1877,1956,1886,1863,1928,1819,1829,1677,1671,1641,1687,1674,1584,1487,1444,1280,1258,1163,1229,1079,976,964,914,927,887,818,865,791,840,853,807,768,746,735,649,615,562,505,441,396,418,368,292,265,249,181,172,113,90,61,50,35,52,540185.3450000002,154170.2620000001,46.536149741174476,6.658915509148831,16.2
Romainmôtier,1323,Romainmôtier-Envy,5761,VD,2524781.479,1169429.646,fr,560,4,2,4,11,4,2,7,5,7,6,8,10,10,6,6,4,11,6,9,4,5,8,1,5,6,7,4,3,6,6,4,3,4,5,7,1,4,8,6,8,9,9,6,8,8,9,14,9,12,8,14,9,10,10,6,6,4,15,8,7,5,6,15,7,7,12,11,4,6,6,8,5,5,5,10,5,3,3,2,2,5,4,1,1,1,3,2,1,3,0,1,0,1,1,0,1,0,0,0,0,0,524781.4789999998,169429.64599999995,46.67185194747944,6.455643682897383,16.23
La Coudre,1148,L'Isle,5486,VD,2520464.23,1165248.283,fr,1096,15,13,8,13,15,8,8,15,10,14,12,14,9,16,10,15,8,17,18,13,11,11,5,8,7,14,9,8,10,11,8,6,14,21,22,22,20,10,14,16,15,19,15,13,15,13,20,8,17,15,18,9,18,12,19,17,16,14,15,17,21,18,17,10,13,14,11,9,12,9,12,7,16,13,11,18,6,10,8,9,7,7,1,7,2,5,3,4,2,1,2,2,1,2,0,2,1,0,0,0,0,520464.23,165248.28300000005,46.63374127482828,6.399953424727333,16.3
Fey,1044,Fey,5522,VD,2541972.296,1169459.296,fr,789,4,7,9,9,8,8,10,9,13,15,14,7,8,13,11,15,6,11,10,14,6,9,16,7,14,7,12,6,5,4,8,7,3,9,13,8,9,7,14,8,9,10,19,12,19,10,16,19,14,9,10,11,13,15,14,12,16,8,15,13,12,6,8,5,13,4,3,8,6,6,10,6,6,3,2,5,6,3,4,5,7,3,2,4,3,4,1,0,1,2,1,1,0,0,2,0,0,0,0,0,0,541972.2960000001,169459.2960000001,46.673834138940975,6.680282100389017,16.37
Croy,1322,Croy,5752,VD,2527070.411,1170926.38,fr,403,2,4,3,8,2,3,5,6,4,3,6,3,6,2,3,2,1,2,0,4,6,5,3,4,6,6,3,1,2,8,3,2,4,6,4,8,4,4,8,3,7,7,3,11,6,5,7,2,6,2,3,4,4,9,7,5,9,6,4,6,5,7,2,3,2,3,5,7,7,4,4,5,2,5,3,6,5,4,4,4,6,4,3,4,1,1,1,3,3,2,0,0,3,2,2,3,1,2,1,1,1,527070.4109999998,170926.3799999999,46.68556881202315,6.4853159793543975,16.42
Chavornay,1373,Chavornay,5749,VD,2533103.482,1172997.042,fr,5442,50,61,61,81,42,77,88,66,72,61,55,75,72,63,58,68,52,60,54,73,67,68,65,77,85,70,78,78,90,73,81,79,79,87,101,94,85,90,80,82,85,65,76,77,88,72,73,79,91,72,92,70,79,78,74,85,70,57,74,65,75,63,63,46,66,36,59,38,41,36,31,31,42,42,32,37,19,20,35,38,32,23,23,13,7,16,11,10,10,3,4,6,4,1,4,3,0,0,0,1,1,533103.4819999998,172997.0419999999,46.70482623768843,6.56387053453764,16.5
Lausanne,1012,Lausanne,5586,VD,2540021.881,1153074.655,fr,145037,1311,1400,1361,1352,1402,1377,1397,1395,1371,1334,1379,1333,1306,1308,1334,1323,1369,1403,1740,1745,1791,1786,1934,2192,2187,2378,2589,2729,2765,2986,2922,2855,2846,2939,2776,2702,2657,2500,2426,2418,2327,2188,2298,2115,2167,2081,2098,2008,1877,1956,1886,1863,1928,1819,1829,1677,1671,1641,1687,1674,1584,1487,1444,1280,1258,1163,1229,1079,976,964,914,927,887,818,865,791,840,853,807,768,746,735,649,615,562,505,441,396,418,368,292,265,249,181,172,113,90,61,50,35,52,540021.881,153074.65500000003,46.52627995966573,6.656927057169589,16.59
Epalinges,1066,Epalinges,5584,VD,2540799.256,1156005.813,fr,9905,80,85,81,102,101,109,101,114,119,109,113,115,115,97,123,120,116,126,132,145,202,211,190,143,140,125,99,106,110,101,104,148,125,119,112,125,150,111,127,134,117,131,134,125,162,140,152,134,145,149,126,139,127,117,150,125,100,131,128,125,149,123,110,113,102,98,105,91,90,95,82,65,68,67,69,71,68,80,71,80,71,67,51,42,45,45,41,28,33,35,27,18,22,16,6,8,5,2,0,2,2,540799.256,156005.81300000008,46.55271539789931,6.666682333543166,16.67
Poliez-Pittet,1041,Poliez-Pittet,5533,VD,2542569.614,1163993.112,fr,850,3,6,9,8,8,12,9,9,11,15,15,12,20,9,14,15,5,12,7,6,10,11,8,13,5,3,11,5,9,9,5,9,8,10,14,7,14,16,16,15,18,12,9,11,12,9,18,14,9,15,15,9,14,12,6,13,14,20,17,19,12,18,9,9,5,5,13,10,5,5,3,5,7,5,4,2,6,3,2,6,7,7,2,5,7,4,5,4,2,1,0,1,0,2,0,0,0,0,0,0,0,542569.6140000001,163993.11199999996,46.624716762156375,6.688770483994643,16.76
Préverenges,1028,Préverenges,5643,VD,2530187.353,1152219.651,fr,5273,44,43,38,58,46,51,44,45,46,61,56,59,58,62,62,67,56,88,79,78,61,62,62,59,59,67,44,61,57,73,58,77,56,73,71,60,70,75,71,85,62,65,72,79,82,67,82,87,73,77,86,97,79,80,81,75,85,78,67,74,78,68,49,44,44,63,44,46,54,41,39,36,32,40,52,47,44,44,41,51,53,45,51,26,23,20,22,22,13,7,10,4,7,5,6,5,1,4,0,1,1,530187.3530000001,152219.65100000007,46.51763584653979,6.52889111264935,16.83
Lausanne,1005,Lausanne,5586,VD,2538907.34,1152372.796,fr,145037,1311,1400,1361,1352,1402,1377,1397,1395,1371,1334,1379,1333,1306,1308,1334,1323,1369,1403,1740,1745,1791,1786,1934,2192,2187,2378,2589,2729,2765,2986,2922,2855,2846,2939,2776,2702,2657,2500,2426,2418,2327,2188,2298,2115,2167,2081,2098,2008,1877,1956,1886,1863,1928,1819,1829,1677,1671,1641,1687,1674,1584,1487,1444,1280,1258,1163,1229,1079,976,964,914,927,887,818,865,791,840,853,807,768,746,735,649,615,562,505,441,396,418,368,292,265,249,181,172,113,90,61,50,35,52,538907.3399999999,152372.7960000001,46.519865855738956,6.642494757964902,17.01
Echichens,1112,Echichens,5634,VD,2527540.101,1153635.274,fr,3218,35,32,34,36,43,44,33,40,43,41,41,45,52,24,43,42,33,29,30,38,23,37,30,31,39,28,24,31,28,31,27,32,44,34,51,35,52,50,48,54,44,39,41,53,41,52,32,41,43,53,56,49,44,47,45,40,47,45,47,45,40,54,42,41,35,31,38,28,32,24,29,27,29,16,20,21,18,14,26,22,17,17,23,18,11,15,14,17,15,13,20,9,8,10,9,7,5,4,3,1,4,527540.1009999998,153635.27399999998,46.53008804336565,6.494175396600959,17.17
Tolochenaz,1131,Tolochenaz,5649,VD,2526211.773,1150597.021,fr,1934,15,14,18,21,20,20,26,20,18,31,17,22,25,17,27,25,16,31,18,21,29,19,24,24,24,27,21,30,23,23,24,20,20,25,22,29,21,31,28,29,37,19,28,27,21,20,28,20,27,39,44,32,38,30,14,30,31,32,36,41,24,21,29,16,24,15,19,18,18,15,17,13,18,16,10,11,13,14,12,13,8,12,10,8,2,7,8,5,7,3,4,2,3,4,2,2,1,0,1,0,0,526211.773,150597.02099999995,46.5026140652809,6.477348449932531,17.27
Juriens,1326,Juriens,5754,VD,2523772.412,1170244.726,fr,348,4,2,5,4,7,6,3,5,3,1,5,6,3,0,4,3,6,1,1,2,1,2,3,2,2,6,6,1,11,8,9,5,10,7,5,4,7,3,6,4,5,2,1,5,2,5,2,5,3,6,1,1,4,4,4,4,5,1,6,6,6,8,7,5,7,5,1,3,4,5,4,3,2,0,3,6,7,7,0,7,1,0,1,2,3,1,2,1,0,0,1,0,0,1,0,0,0,0,0,0,0,523772.412,170244.72600000002,46.6790689762508,6.442322856954778,17.29
Villars-Ste-Croix,1029,Villars-Sainte-Croix,5651,VD,2532883.923,1157517.241,fr,955,5,11,11,11,4,9,8,15,13,15,8,13,7,12,11,13,6,12,7,7,10,16,10,10,6,19,9,9,13,9,7,9,11,11,9,15,17,10,11,13,15,9,10,15,15,15,18,15,20,12,15,20,14,17,16,25,14,11,12,16,5,16,11,11,14,17,10,9,12,6,6,9,7,11,6,8,9,8,3,13,8,8,4,3,1,1,2,1,2,0,2,1,2,1,2,0,0,0,0,0,0,532883.923,157517.24099999992,46.565563603535814,6.563257725947673,17.3
Corcelles-sur-Chavornay,1374,Chavornay,5749,VD,2536407.981,1172288.597,fr,5442,50,61,61,81,42,77,88,66,72,61,55,75,72,63,58,68,52,60,54,73,67,68,65,77,85,70,78,78,90,73,81,79,79,87,101,94,85,90,80,82,85,65,76,77,88,72,73,79,91,72,92,70,79,78,74,85,70,57,74,65,75,63,63,46,66,36,59,38,41,36,31,31,42,42,32,37,19,20,35,38,32,23,23,13,7,16,11,10,10,3,4,6,4,1,4,3,0,0,0,1,1,536407.9810000001,172288.59700000007,46.6987769037171,6.607176371019172,17.33
Dommartin,1041,Montilliez,5540,VD,2543159.825,1166056.026,fr,1874,21,16,28,21,23,17,20,20,23,22,18,14,21,27,21,29,22,19,24,17,25,18,29,26,17,18,24,17,22,23,24,28,24,28,38,46,34,21,24,25,23,24,18,26,30,25,28,29,22,34,32,27,37,28,22,33,30,29,25,31,16,27,31,18,16,21,17,16,15,21,15,12,14,18,16,12,12,16,3,6,14,13,5,5,3,4,3,2,0,4,0,1,3,3,2,1,1,1,0,0,0,543159.8250000002,166056.02600000007,46.64332344194017,6.696221565695044,17.47
Chigny,1134,Chigny,5628,VD,2526244.989,1152036.759,fr,420,4,2,5,4,5,4,10,8,6,7,5,9,3,5,4,3,7,13,1,9,9,8,7,3,4,4,3,2,1,5,4,1,6,3,4,5,6,4,5,6,5,6,13,8,10,11,5,3,6,6,7,7,5,10,15,4,5,7,4,5,9,3,2,3,4,4,3,4,3,3,5,4,3,2,4,1,1,4,2,3,1,2,1,0,0,1,0,1,0,0,1,0,0,0,0,0,0,0,0,0,0,526244.9890000001,152036.75900000008,46.51556806919136,6.477551422928989,17.53
Lausanne 27,1000,Lausanne,5586,VD,2541916.465,1154770.976,fr,145037,1311,1400,1361,1352,1402,1377,1397,1395,1371,1334,1379,1333,1306,1308,1334,1323,1369,1403,1740,1745,1791,1786,1934,2192,2187,2378,2589,2729,2765,2986,2922,2855,2846,2939,2776,2702,2657,2500,2426,2418,2327,2188,2298,2115,2167,2081,2098,2008,1877,1956,1886,1863,1928,1819,1829,1677,1671,1641,1687,1674,1584,1487,1444,1280,1258,1163,1229,1079,976,964,914,927,887,818,865,791,840,853,807,768,746,735,649,615,562,505,441,396,418,368,292,265,249,181,172,113,90,61,50,35,52,541916.4649999999,154770.97600000002,46.54170573592923,6.681404754404282,17.53
Essert-Pittet,1435,Chavornay,5749,VD,2534334.619,1175489.753,fr,5442,50,61,61,81,42,77,88,66,72,61,55,75,72,63,58,68,52,60,54,73,67,68,65,77,85,70,78,78,90,73,81,79,79,87,101,94,85,90,80,82,85,65,76,77,88,72,73,79,91,72,92,70,79,78,74,85,70,57,74,65,75,63,63,46,66,36,59,38,41,36,31,31,42,42,32,37,19,20,35,38,32,23,23,13,7,16,11,10,10,3,4,6,4,1,4,3,0,0,0,1,1,534334.619,175489.75300000003,46.72737034327166,6.579611282926977,17.61
Arnex-sur-Orbe,1321,Arnex-sur-Orbe,5743,VD,2529608.237,1171901.629,fr,697,9,9,12,8,12,8,4,10,9,6,10,10,8,8,5,9,3,11,7,12,10,6,2,4,6,8,7,5,13,14,11,5,12,11,7,10,12,12,14,12,10,8,9,10,8,9,12,10,7,12,8,13,10,11,4,7,14,4,5,10,8,9,7,9,7,7,5,10,10,4,9,6,6,7,6,12,7,2,4,7,4,2,0,2,1,1,2,4,0,4,1,2,0,0,0,0,0,0,0,0,0,529608.2370000002,171901.62899999996,46.69461353893498,6.518337334172253,17.84
Lully VD,1132,Lully (VD),5639,VD,2525212.351,1150929.489,fr,838,8,9,7,9,8,14,9,14,15,11,10,12,9,9,17,12,15,9,10,10,10,5,10,10,10,13,10,9,9,3,5,7,2,9,10,14,12,7,13,8,9,8,9,11,15,15,13,11,9,10,7,14,16,21,9,6,14,15,13,11,12,9,13,10,11,9,16,7,5,8,4,10,1,9,8,8,9,13,6,5,4,5,7,2,3,4,2,3,0,1,1,0,0,1,2,1,0,0,0,0,0,525212.3509999998,150929.48900000006,46.50549372638036,6.464275875520596,17.89
Naz,1041,Montilliez,5540,VD,2543006.188,1167781.932,fr,1874,21,16,28,21,23,17,20,20,23,22,18,14,21,27,21,29,22,19,24,17,25,18,29,26,17,18,24,17,22,23,24,28,24,28,38,46,34,21,24,25,23,24,18,26,30,25,28,29,22,34,32,27,37,28,22,33,30,29,25,31,16,27,31,18,16,21,17,16,15,21,15,12,14,18,16,12,12,16,3,6,14,13,5,5,3,4,3,2,0,4,0,1,3,3,2,1,1,1,0,0,0,543006.1880000001,167781.93200000003,46.65883510630651,6.694001059793421,17.9
Les Monts-de-Pully,1068,Pully,5590,VD,2542058.408,1153927.754,fr,19545,163,198,171,204,196,191,207,195,202,204,190,215,188,200,232,230,239,209,259,212,181,149,194,199,179,200,212,201,192,203,229,217,255,264,273,285,295,270,287,286,292,293,294,290,306,260,280,316,244,311,287,260,277,273,274,250,218,261,240,242,261,261,253,212,192,200,206,178,153,147,156,170,173,153,147,155,175,175,203,176,181,178,177,164,119,133,96,101,109,66,87,58,40,40,37,23,17,7,11,6,5,542058.4079999998,153927.75399999996,46.5341331052626,6.683360941906697,17.96
Orbe,1350,Orbe,5757,VD,2531550.42,1174999.98,fr,7962,101,91,101,81,95,106,92,88,98,82,81,97,88,96,97,91,96,103,74,86,81,95,92,97,90,112,133,112,120,103,114,102,119,139,132,115,147,114,124,116,136,125,125,126,128,105,104,106,102,113,87,97,91,99,93,94,108,99,98,106,97,97,82,93,83,85,66,51,49,54,54,62,62,58,65,60,60,58,46,40,44,49,48,28,26,22,33,25,25,18,14,14,14,10,8,5,3,2,2,5,2,531550.4199999999,174999.97999999998,46.72268495678273,6.543264954961163,18.34
Suchy,1433,Suchy,5929,VD,2536187.153,1174752.7,fr,670,2,12,10,4,14,4,6,5,14,6,8,12,11,11,15,13,9,12,7,8,7,6,8,9,7,7,6,7,7,7,12,6,8,9,5,11,13,11,11,10,7,14,13,16,10,17,16,13,12,7,10,11,15,7,15,5,10,9,10,5,8,7,8,5,3,5,1,6,7,6,3,2,5,2,3,3,2,2,4,4,0,2,2,3,1,0,1,2,0,1,0,0,0,0,0,0,0,0,0,0,0,536187.1529999999,174752.69999999995,46.72092039124121,6.603946594212797,18.47
Ballens,1144,Ballens,5423,VD,2518666.892,1156370.731,fr,579,5,7,8,6,7,7,6,7,8,7,3,7,3,2,8,6,10,4,9,8,8,7,6,8,13,4,8,9,8,8,3,3,10,8,9,11,12,5,6,9,7,4,7,8,8,7,4,8,3,8,12,13,5,8,9,10,5,8,8,6,10,7,4,1,8,9,9,8,8,3,4,3,3,5,4,5,4,6,6,9,5,2,1,2,3,3,1,3,3,2,2,0,1,0,1,2,0,0,0,0,1,518666.892,156370.7309999999,46.553673532442936,6.378051163884651,18.55
Pully,1009,Pully,5590,VD,2539990.437,1151520.455,fr,19545,163,198,171,204,196,191,207,195,202,204,190,215,188,200,232,230,239,209,259,212,181,149,194,199,179,200,212,201,192,203,229,217,255,264,273,285,295,270,287,286,292,293,294,290,306,260,280,316,244,311,287,260,277,273,274,250,218,261,240,242,261,261,253,212,192,200,206,178,153,147,156,170,173,153,147,155,175,175,203,176,181,178,177,164,119,133,96,101,109,66,87,58,40,40,37,23,17,7,11,6,5,539990.4369999999,151520.45500000007,46.512296868237335,6.656719092273509,18.55
Montaubion-Chardonney,1041,Jorat-Menthue,5804,VD,2544516.197,1166303.84,fr,1576,16,18,15,20,19,17,28,16,19,11,14,21,14,17,22,25,21,21,18,17,16,10,19,11,16,15,20,18,17,19,22,25,15,18,27,27,21,18,22,25,29,21,30,15,18,23,23,27,21,19,19,24,32,21,19,24,21,23,21,25,27,25,18,17,11,24,13,17,11,15,17,11,11,11,12,8,4,16,9,20,21,6,11,9,5,5,4,1,2,2,2,2,1,2,0,0,1,0,0,0,0,544516.1970000002,166303.84000000008,46.6456666049392,6.713906848020125,18.64
Vufflens-le-Château,1134,Vufflens-le-Château,5653,VD,2525709.01,1152932.575,fr,838,5,8,11,6,6,8,10,9,6,11,7,9,13,14,7,16,12,10,13,13,11,10,7,12,13,10,6,8,1,8,5,6,9,6,7,8,10,13,6,7,16,7,9,16,10,11,20,14,13,13,17,7,18,14,13,12,14,13,15,15,5,12,9,11,7,10,10,18,9,11,9,6,3,6,5,5,7,9,7,1,10,8,5,8,4,5,7,1,0,1,1,1,1,1,1,0,0,0,0,0,0,525709.0099999998,152932.57499999995,46.52356660604844,6.470423886385308,18.65
St-Prex,1162,Lully (VD),5639,VD,2525704.931,1149798.782,fr,838,8,9,7,9,8,14,9,14,15,11,10,12,9,9,17,12,15,9,10,10,10,5,10,10,10,13,10,9,9,3,5,7,2,9,10,14,12,7,13,8,9,8,9,11,15,15,13,11,9,10,7,14,16,21,9,6,14,15,13,11,12,9,13,10,11,9,16,7,5,8,4,10,1,9,8,8,9,13,6,5,4,5,7,2,3,4,2,3,0,1,1,0,0,1,2,1,0,0,0,0,0,525704.9309999999,149798.7819999999,46.495377930957034,6.470874397797804,18.8
Lausanne 26,1000,Lausanne,5586,VD,2543135.035,1156066.783,fr,145037,1311,1400,1361,1352,1402,1377,1397,1395,1371,1334,1379,1333,1306,1308,1334,1323,1369,1403,1740,1745,1791,1786,1934,2192,2187,2378,2589,2729,2765,2986,2922,2855,2846,2939,2776,2702,2657,2500,2426,2418,2327,2188,2298,2115,2167,2081,2098,2008,1877,1956,1886,1863,1928,1819,1829,1677,1671,1641,1687,1674,1584,1487,1444,1280,1258,1163,1229,1079,976,964,914,927,887,818,865,791,840,853,807,768,746,735,649,615,562,505,441,396,418,368,292,265,249,181,172,113,90,61,50,35,52,543135.0350000001,156066.78300000005,46.55346641810867,6.697130612558073,18.89
Penthéréaz,1375,Penthéréaz,5531,VD,2536247.981,1170528.488,fr,430,2,4,4,9,2,8,7,4,5,2,3,6,10,7,3,4,4,5,5,4,5,5,3,5,3,6,4,9,4,2,4,8,8,5,5,4,6,11,9,3,3,9,5,5,7,7,7,7,4,8,7,4,5,14,9,5,4,8,7,5,8,8,7,9,5,5,5,4,3,3,4,1,2,2,4,2,2,1,3,1,1,0,3,0,0,1,2,2,1,1,0,0,1,1,1,0,0,0,0,0,0,536247.9810000001,170528.4879999999,46.682929454098826,6.605328914904554,18.97
Bercher,1038,Bercher,5512,VD,2543941.444,1171229.931,fr,1344,11,14,11,14,10,15,13,13,21,14,19,13,24,16,24,13,17,25,19,15,23,18,14,13,20,18,13,23,17,18,6,13,17,15,13,13,26,20,15,23,12,15,12,18,13,14,12,19,21,19,26,18,25,21,21,17,22,29,25,16,14,21,16,18,19,17,13,15,12,10,11,12,8,7,14,7,7,14,7,6,10,4,8,7,4,4,2,4,6,1,4,1,2,1,2,1,1,0,0,0,0,543941.4440000001,171229.9310000001,46.68992946766327,6.705798974593581,19.03
Peyres-Possens,1063,Montanaire,5693,VD,2544173.263,1168245.976,fr,2861,16,27,36,36,33,31,49,40,31,33,33,37,42,32,38,42,43,32,41,43,29,37,28,25,32,20,19,28,39,38,41,33,39,46,54,35,57,40,30,40,36,38,25,42,43,45,49,41,36,41,33,38,36,41,43,43,32,39,45,41,32,40,37,30,40,32,23,29,27,33,24,27,26,24,17,24,17,20,19,16,7,18,11,4,9,9,10,6,8,5,6,4,7,2,3,1,0,1,0,0,1,544173.2629999998,168245.97600000002,46.66310783189057,6.709191895333466,19.11
Bofflens,1353,Bofflens,5747,VD,2527833.749,1172905.092,fr,200,4,3,2,4,5,2,2,3,2,1,1,3,2,3,1,5,1,0,1,3,1,1,2,0,1,1,2,1,1,2,4,7,5,3,3,4,3,8,4,1,3,2,2,0,4,4,3,1,3,0,0,2,0,4,2,2,4,3,2,3,7,1,1,2,3,3,5,3,7,4,1,1,2,0,2,0,1,3,1,0,2,0,2,0,1,0,1,0,0,0,0,0,0,1,0,0,0,0,0,0,0,527833.7489999998,172905.09199999995,46.70345000990227,6.49498217820717,19.22
Lussy-sur-Morges,1167,Lussy-sur-Morges,5640,VD,2523984.018,1150490.596,fr,719,8,6,9,13,5,7,11,9,13,8,10,12,12,11,10,9,10,10,11,14,9,7,7,5,7,1,5,6,4,4,4,8,6,7,5,12,9,8,8,4,9,10,13,8,9,9,13,11,13,13,13,9,10,12,12,9,7,14,8,16,6,6,9,2,3,4,10,11,8,4,4,7,5,7,6,6,2,2,10,7,7,3,7,2,2,2,7,3,3,8,0,8,2,1,0,0,1,0,1,1,0,523984.01800000016,150490.5959999999,46.50140762914529,6.448346558430235,19.46
Villars-Tiercelin,1058,Jorat-Menthue,5804,VD,2544449.226,1163130.181,fr,1576,16,18,15,20,19,17,28,16,19,11,14,21,14,17,22,25,21,21,18,17,16,10,19,11,16,15,20,18,17,19,22,25,15,18,27,27,21,18,22,25,29,21,30,15,18,23,23,27,21,19,19,24,32,21,19,24,21,23,21,25,27,25,18,17,11,24,13,17,11,15,17,11,11,11,12,8,4,16,9,20,21,6,11,9,5,5,4,1,2,2,2,2,1,2,0,0,1,0,0,0,0,544449.2259999998,163130.1810000001,46.617113445974695,6.713415214068698,19.53
Villars-Mendraz,1061,Jorat-Menthue,5804,VD,2545545.874,1166532.945,fr,1576,16,18,15,20,19,17,28,16,19,11,14,21,14,17,22,25,21,21,18,17,16,10,19,11,16,15,20,18,17,19,22,25,15,18,27,27,21,18,22,25,29,21,30,15,18,23,23,27,21,19,19,24,32,21,19,24,21,23,21,25,27,25,18,17,11,24,13,17,11,15,17,11,11,11,12,8,4,16,9,20,21,6,11,9,5,5,4,1,2,2,2,2,1,2,0,0,1,0,0,0,0,545545.8739999998,166532.94500000007,46.647812178114606,6.727328635159333,19.67
Denens,1135,Denens,5631,VD,2524350.31,1152299.081,fr,742,7,4,5,4,3,10,4,5,11,10,9,8,7,10,6,10,4,5,6,10,8,10,8,12,10,4,5,11,5,7,13,18,7,18,9,5,10,5,8,5,8,7,10,7,11,15,7,7,6,10,4,12,8,13,14,16,14,12,11,8,15,15,10,22,12,12,13,5,7,10,9,6,8,7,6,6,8,4,3,4,7,2,4,2,4,2,4,3,2,0,2,1,5,0,3,0,2,0,0,0,1,524350.31,152299.081,46.51771623919282,6.4528219180580955,19.82
Mollens VD,1146,Mollens (VD),5431,VD,2517549.22,1158860.949,fr,324,5,4,1,4,4,2,3,3,1,7,1,0,3,1,1,2,3,1,3,1,2,4,4,8,3,2,2,1,5,6,5,6,8,6,7,2,3,9,3,4,3,3,5,7,8,4,2,3,3,4,5,5,2,5,3,3,4,3,10,13,9,8,7,10,6,5,4,2,1,2,3,1,1,3,2,3,2,1,3,2,1,3,3,0,0,1,0,2,0,2,0,1,0,0,1,0,0,0,0,0,0,517549.2200000002,158860.94900000002,46.57593560154733,6.363033420338431,20.11
Peyres-Possens,1063,Jorat-Menthue,5804,VD,2544852.585,1167823.695,fr,1576,16,18,15,20,19,17,28,16,19,11,14,21,14,17,22,25,21,21,18,17,16,10,19,11,16,15,20,18,17,19,22,25,15,18,27,27,21,18,22,25,29,21,30,15,18,23,23,27,21,19,19,24,32,21,19,24,21,23,21,25,27,25,18,17,11,24,13,17,11,15,17,11,11,11,12,8,4,16,9,20,21,6,11,9,5,5,4,1,2,2,2,2,1,2,0,0,1,0,0,0,0,544852.585,167823.69500000007,46.65936579801793,6.7181182329448,20.12
La Croix (Lutry),1090,Lutry,5606,VD,2543456.082,1152743.772,fr,10750,92,90,79,106,103,118,104,116,113,112,118,102,124,103,104,120,97,115,120,92,111,100,107,121,91,95,101,101,94,87,104,118,149,141,114,146,154,164,143,136,146,137,150,157,158,131,142,149,146,142,169,156,158,154,144,159,174,155,175,146,166,124,149,155,144,126,108,117,104,93,103,105,110,116,92,105,111,123,101,74,104,110,86,58,66,54,69,52,41,40,24,35,27,19,24,20,10,9,4,5,14,543456.0819999999,152743.7720000001,46.52360247464595,6.701723631471161,20.14
Corcelles-le-Jorat,1082,Corcelles-le-Jorat,5785,VD,2545728.213,1161085.72,fr,499,4,4,6,3,7,6,3,7,6,5,2,9,6,7,3,7,4,3,7,7,6,3,3,3,9,10,12,6,5,4,8,2,8,8,7,9,7,8,8,5,7,1,5,4,15,5,6,7,3,4,11,6,9,2,4,10,5,5,6,7,7,15,8,9,7,5,8,5,8,6,7,3,3,3,4,3,7,1,7,3,4,0,3,4,0,0,3,2,2,0,1,0,0,1,1,0,0,0,0,0,0,545728.213,161085.71999999997,46.59882819741623,6.73035251417324,20.15
Lausanne 25,1000,Lausanne,5586,VD,2542510.369,1158315.802,fr,145037,1311,1400,1361,1352,1402,1377,1397,1395,1371,1334,1379,1333,1306,1308,1334,1323,1369,1403,1740,1745,1791,1786,1934,2192,2187,2378,2589,2729,2765,2986,2922,2855,2846,2939,2776,2702,2657,2500,2426,2418,2327,2188,2298,2115,2167,2081,2098,2008,1877,1956,1886,1863,1928,1819,1829,1677,1671,1641,1687,1674,1584,1487,1444,1280,1258,1163,1229,1079,976,964,914,927,887,818,865,791,840,853,807,768,746,735,649,615,562,505,441,396,418,368,292,265,249,181,172,113,90,61,50,35,52,542510.369,158315.8019999999,46.57364336262082,6.688705354616477,20.26
Lutry,1095,Paudex,5588,VD,2541428.44,1151088.559,fr,1512,17,17,9,17,14,14,23,17,11,13,16,14,18,8,17,14,20,15,5,12,8,13,2,15,13,13,20,23,21,18,20,20,24,30,20,32,19,29,18,24,25,27,28,19,26,20,15,20,24,16,28,27,16,20,23,17,20,19,13,21,17,20,24,12,22,12,10,8,11,8,22,12,16,22,19,14,18,15,22,12,15,15,6,8,10,11,7,2,4,5,4,0,3,3,2,2,2,0,0,0,0,541428.44,151088.5589999999,46.50853921222297,6.675509629550485,20.32
Bercher,1038,Montanaire,5693,VD,2544884.381,1171890.901,fr,2861,16,27,36,36,33,31,49,40,31,33,33,37,42,32,38,42,43,32,41,43,29,37,28,25,32,20,19,28,39,38,41,33,39,46,54,35,57,40,30,40,36,38,25,42,43,45,49,41,36,41,33,38,36,41,43,43,32,39,45,41,32,40,37,30,40,32,23,29,27,33,24,27,26,24,17,24,17,20,19,16,7,18,11,4,9,9,10,6,8,5,6,4,7,2,3,1,0,1,0,0,1,544884.381,171890.90100000007,46.695953510317764,6.718045692074145,20.36
Bercher,1038,Boulens,5661,VD,2544840.18,1171813.373,fr,368,2,1,8,3,4,5,6,2,6,6,6,5,4,8,5,0,5,6,3,2,2,3,1,4,3,1,4,1,5,6,4,6,5,5,11,9,4,8,11,2,2,10,5,4,11,5,2,1,4,3,8,2,8,5,2,3,4,9,1,3,5,9,5,1,7,4,8,1,5,4,0,4,4,2,1,3,6,4,3,3,3,0,5,1,1,1,1,0,0,0,1,0,0,0,1,0,0,0,1,0,0,544840.1800000002,171813.3729999999,46.69525248431634,6.717477147481983,20.57
Bretonnières,1329,Bretonnières,5748,VD,2525903.368,1174092.272,fr,261,3,1,3,4,3,4,7,3,6,1,2,5,6,2,6,0,1,5,2,3,2,1,3,4,0,1,1,3,1,4,1,8,2,0,6,2,7,3,3,6,1,7,5,4,6,2,3,2,3,3,3,2,4,1,4,5,3,7,3,0,6,7,7,4,4,3,3,1,1,1,3,4,4,3,0,1,1,3,0,1,1,1,1,1,1,1,2,2,0,0,1,0,0,0,0,0,0,0,0,0,0,525903.3679999998,174092.2720000001,46.71391689222753,6.469551097555827,20.57
Paudex,1094,Paudex,5588,VD,2541258.991,1151071.968,fr,1512,17,17,9,17,14,14,23,17,11,13,16,14,18,8,17,14,20,15,5,12,8,13,2,15,13,13,20,23,21,18,20,20,24,30,20,32,19,29,18,24,25,27,28,19,26,20,15,20,24,16,28,27,16,20,23,17,20,19,13,21,17,20,24,12,22,12,10,8,11,8,22,12,16,22,19,14,18,15,22,12,15,15,6,8,10,11,7,2,4,5,4,0,3,3,2,2,2,0,0,0,0,541258.9909999999,151071.9680000001,46.50837513105047,6.673304131671753,20.59
Montricher,1147,Montricher,5492,VD,2517163.744,1161876.598,fr,943,7,11,10,11,7,4,8,10,2,9,12,11,12,8,9,7,8,14,11,8,5,12,10,13,11,7,9,13,14,17,13,18,9,3,13,11,13,10,17,12,18,17,15,12,11,17,19,12,11,14,11,12,17,16,14,17,14,14,20,21,11,15,14,6,12,13,10,8,12,7,6,8,7,12,9,10,7,4,9,14,7,9,4,3,1,3,3,2,1,1,0,0,2,1,0,0,1,0,0,0,0,517163.74399999995,161876.598,46.603012890440425,6.357463339033406,20.65
Belmont-sur-Lausanne,1092,Lutry,5606,VD,2542732.579,1152808.898,fr,10750,92,90,79,106,103,118,104,116,113,112,118,102,124,103,104,120,97,115,120,92,111,100,107,121,91,95,101,101,94,87,104,118,149,141,114,146,154,164,143,136,146,137,150,157,158,131,142,149,146,142,169,156,158,154,144,159,174,155,175,146,166,124,149,155,144,126,108,117,104,93,103,105,110,116,92,105,111,123,101,74,104,110,86,58,66,54,69,52,41,40,24,35,27,19,24,20,10,9,4,5,14,542732.5789999999,152808.89800000004,46.52412679809732,6.6922870140356645,20.67
La Croix (Lutry),1090,Savigny,5611,VD,2544558.516,1152151.18,fr,3506,29,34,37,33,43,30,40,44,45,44,43,42,37,43,40,48,38,31,36,26,46,36,35,36,34,28,36,27,25,35,35,43,37,44,43,45,48,57,60,52,46,45,51,53,52,41,49,47,58,45,54,55,57,46,60,52,41,42,55,48,49,43,50,49,50,42,41,46,37,35,35,34,30,42,35,36,26,35,29,19,19,25,26,19,11,9,13,10,8,8,5,7,6,2,5,3,1,1,0,0,3,544558.5159999998,152151.17999999993,46.51836418120483,6.716161469270893,20.78
Essertines-sur-Yverdon,1417,Essertines-sur-Yverdon,5520,VD,2539198.298,1174326.691,fr,1148,15,16,16,16,16,12,16,15,19,19,17,18,15,11,15,12,12,15,13,11,14,12,15,19,13,15,8,14,16,19,17,9,19,12,14,13,16,11,19,23,22,20,24,25,18,18,17,16,18,11,22,15,16,12,8,11,16,17,17,15,14,9,12,9,15,9,10,11,5,5,11,7,7,8,10,8,9,4,7,9,6,3,5,6,2,1,4,1,1,1,0,0,1,0,2,0,0,1,0,0,0,539198.298,174326.6910000001,46.71736969795352,6.643386953810754,20.98
St-Prex,1162,Saint-Prex,5646,VD,2523884.009,1148688.201,fr,5868,45,55,68,63,58,66,63,60,62,53,66,73,68,71,73,69,70,78,89,78,65,77,64,57,68,69,66,53,60,48,56,64,68,68,75,84,74,76,80,86,85,93,87,80,86,95,106,101,108,91,93,99,98,94,97,103,92,96,95,80,82,69,64,57,52,52,73,53,51,53,34,41,43,49,56,49,51,52,50,32,26,29,39,15,18,25,22,16,10,8,6,5,4,3,6,3,2,0,2,0,1,523884.0090000001,148688.20099999988,46.48518392186557,6.447340447240434,21.03
Peney-le-Jorat,1059,Jorat-Menthue,5804,VD,2545655.668,1164443.266,fr,1576,16,18,15,20,19,17,28,16,19,11,14,21,14,17,22,25,21,21,18,17,16,10,19,11,16,15,20,18,17,19,22,25,15,18,27,27,21,18,22,25,29,21,30,15,18,23,23,27,21,19,19,24,32,21,19,24,21,23,21,25,27,25,18,17,11,24,13,17,11,15,17,11,11,11,12,8,4,16,9,20,21,6,11,9,5,5,4,1,2,2,2,2,1,2,0,0,1,0,0,0,0,545655.6680000001,164443.26600000006,46.62902408333845,6.729009574277644,21.03
Belmont-sur-Lausanne,1092,Belmont-sur-Lausanne,5581,VD,2542613.932,1153323.897,fr,3922,31,34,33,47,41,54,49,39,51,48,37,36,57,50,55,51,45,64,58,42,60,46,46,45,44,39,36,30,40,35,29,44,45,48,54,50,59,49,51,65,53,52,63,54,53,67,70,59,66,66,44,60,60,67,59,53,60,71,66,60,51,62,54,45,41,45,49,41,28,38,28,22,23,21,29,22,22,31,28,26,21,25,19,13,13,16,12,16,11,5,3,7,2,4,5,3,1,0,0,0,0,542613.932,153323.8970000001,46.528749153917396,6.6906768460276975,21.18
Vuarrens,1418,Vuarrens,5539,VD,2539420.518,1170765.149,fr,1120,13,12,13,14,11,17,12,18,17,13,12,18,18,20,20,18,17,23,23,6,13,11,7,8,15,13,10,17,14,18,12,12,15,12,16,16,14,16,22,13,24,15,15,24,25,22,17,14,26,21,20,15,24,16,18,18,17,12,18,14,9,10,13,6,7,4,10,8,8,7,5,7,7,2,1,8,4,1,9,4,8,4,4,0,4,0,1,0,0,1,1,0,0,1,1,1,0,0,0,0,0,539420.5180000002,170765.14899999998,46.68535369592489,6.646763318972082,21.27
Aran,1091,Savigny,5611,VD,2544854.08,1152140.657,fr,3506,29,34,37,33,43,30,40,44,45,44,43,42,37,43,40,48,38,31,36,26,46,36,35,36,34,28,36,27,25,35,35,43,37,44,43,45,48,57,60,52,46,45,51,53,52,41,49,47,58,45,54,55,57,46,60,52,41,42,55,48,49,43,50,49,50,42,41,46,37,35,35,34,30,42,35,36,26,35,29,19,19,25,26,19,11,9,13,10,8,8,5,7,6,2,5,3,1,1,0,0,3,544854.0800000001,152140.6569999999,46.51829393327247,6.7200140958953405,21.29
Peney-le-Jorat,1059,Hermenches,5673,VD,2546662.508,1165512.619,fr,373,3,2,5,5,4,0,5,1,2,5,2,6,5,1,3,3,5,3,2,4,5,6,0,3,5,5,3,3,8,5,1,5,4,5,6,6,5,6,2,3,3,2,3,4,5,9,6,5,5,6,3,6,6,10,11,6,8,4,7,5,6,11,4,5,6,6,4,2,7,3,3,0,5,3,3,4,5,3,5,5,3,0,2,1,1,0,1,3,1,1,2,0,0,1,0,0,0,1,0,0,0,546662.5079999999,165512.61899999995,46.63872425229968,6.742032229338786,21.3
Bussy-Chardonney,1136,Hautemorges,5656,VD,2523206.85,1153792.215,fr,4387,39,55,40,63,59,58,63,48,62,46,48,50,61,56,59,43,46,51,43,44,52,47,43,65,50,48,46,49,36,54,44,39,49,57,56,61,81,62,68,65,62,61,62,60,74,63,50,83,58,62,65,53,76,59,57,58,64,54,61,67,54,56,48,53,52,33,50,51,33,45,33,39,41,30,27,42,28,39,43,23,32,22,22,20,15,12,13,13,11,11,6,6,7,3,7,0,6,3,1,1,1,523206.8500000001,153792.21500000008,46.53101661004129,6.437674559546703,21.43
Agiez,1352,Agiez,5742,VD,2528896.449,1174303.651,fr,373,3,3,7,6,6,5,7,9,4,3,7,3,4,6,3,10,2,3,4,4,4,4,4,3,6,2,3,5,4,3,10,3,6,7,6,6,3,3,5,8,5,1,5,9,5,6,2,5,8,6,8,8,5,1,3,4,4,8,6,0,4,5,5,3,4,8,2,4,4,5,4,0,4,2,0,5,1,3,6,2,2,2,3,0,0,0,0,1,0,1,0,0,0,0,0,0,0,0,0,0,0,528896.449,174303.65100000007,46.71614394563814,6.508660140455619,21.45
Lutry,1095,Lutry,5606,VD,2542710.711,1150809.988,fr,10750,92,90,79,106,103,118,104,116,113,112,118,102,124,103,104,120,97,115,120,92,111,100,107,121,91,95,101,101,94,87,104,118,149,141,114,146,154,164,143,136,146,137,150,157,158,131,142,149,146,142,169,156,158,154,144,159,174,155,175,146,166,124,149,155,144,126,108,117,104,93,103,105,110,116,92,105,111,123,101,74,104,110,86,58,66,54,69,52,41,40,24,35,27,19,24,20,10,9,4,5,14,542710.7110000001,150809.9879999999,46.506144335273206,6.6922497992210825,21.54
Ependes VD,1434,Ependes (VD),5914,VD,2536107.959,1177558.772,fr,381,3,6,7,2,6,6,6,4,8,5,6,4,5,2,5,6,1,5,6,1,5,4,3,2,5,2,7,4,3,4,4,7,9,4,9,5,5,4,9,8,3,6,3,8,4,1,2,5,6,6,11,9,6,1,7,4,7,4,5,4,9,5,3,1,4,5,2,5,3,4,2,0,0,1,3,2,4,3,3,4,3,5,1,2,3,2,1,0,1,0,1,0,0,0,0,0,0,0,0,0,0,536107.9589999998,177558.7720000001,46.74615332026158,6.602519722092007,21.59
Chapelle-sur-Moudon,1063,Montanaire,5693,VD,2546320.855,1169080.181,fr,2861,16,27,36,36,33,31,49,40,31,33,33,37,42,32,38,42,43,32,41,43,29,37,28,25,32,20,19,28,39,38,41,33,39,46,54,35,57,40,30,40,36,38,25,42,43,45,49,41,36,41,33,38,36,41,43,43,32,39,45,41,32,40,37,30,40,32,23,29,27,33,24,27,26,24,17,24,17,20,19,16,7,18,11,4,9,9,10,6,8,5,6,4,7,2,3,1,0,1,0,0,1,546320.855,169080.1810000001,46.670787737922815,6.737153878188545,21.62
Valeyres-sous-Rances,1358,Valeyres-sous-Rances,5763,VD,2531192.671,1177852.592,fr,583,2,4,7,3,6,7,4,6,10,10,7,14,6,13,8,8,7,4,9,6,4,3,1,7,6,8,8,8,4,6,10,8,7,7,8,7,6,4,6,6,11,12,5,13,11,11,8,7,5,13,8,11,11,11,5,6,8,8,7,6,8,7,13,6,10,3,4,7,8,7,7,8,4,8,3,7,4,2,3,4,2,1,5,0,1,2,0,2,1,1,0,0,0,1,2,0,0,0,0,0,0,531192.6710000001,177852.59199999995,46.748307045963,6.538157557890603,21.77
Boulens,1063,Boulens,5661,VD,2544947.172,1170365.557,fr,368,2,1,8,3,4,5,6,2,6,6,6,5,4,8,5,0,5,6,3,2,2,3,1,4,3,1,4,1,5,6,4,6,5,5,11,9,4,8,11,2,2,10,5,4,11,5,2,1,4,3,8,2,8,5,2,3,4,9,1,3,5,9,5,1,7,4,8,1,5,4,0,4,4,2,1,3,6,4,3,3,3,0,5,1,1,1,1,0,0,0,1,0,0,0,1,0,0,0,1,0,0,544947.1719999998,170365.55700000003,46.68223802270173,6.719049451229311,21.84
Aran,1091,Bourg-en-Lavaux,5613,VD,2544621.968,1151351.511,fr,5465,41,45,53,50,56,45,57,45,51,48,51,47,53,58,65,62,56,71,54,68,48,47,59,38,71,48,49,64,42,51,57,59,82,81,77,83,67,55,77,68,71,69,73,74,83,94,63,90,99,75,73,82,82,69,75,87,85,82,82,82,87,83,74,80,70,65,60,79,59,55,45,51,62,62,49,61,52,45,53,45,50,44,33,39,24,19,20,30,14,15,6,14,4,5,2,8,2,4,1,0,5,544621.9679999999,151351.51099999994,46.51117622954652,6.717084096744387,21.88
Lutry,1095,Bourg-en-Lavaux,5613,VD,2543839.578,1150296.713,fr,5465,41,45,53,50,56,45,57,45,51,48,51,47,53,58,65,62,56,71,54,68,48,47,59,38,71,48,49,64,42,51,57,59,82,81,77,83,67,55,77,68,71,69,73,74,83,94,63,90,99,75,73,82,82,69,75,87,85,82,82,82,87,83,74,80,70,65,60,79,59,55,45,51,62,62,49,61,52,45,53,45,50,44,33,39,24,19,20,30,14,15,6,14,4,5,2,8,2,4,1,0,5,543839.5780000002,150296.713,46.50162293289957,6.7070185932178505,21.89
Belmont-sur-Yverdon,1432,Belmont-sur-Yverdon,5902,VD,2537794.112,1176611.997,fr,445,6,3,2,8,10,3,6,3,7,6,5,2,5,7,8,5,5,3,3,6,4,3,6,5,3,5,3,7,4,3,2,3,4,3,5,16,6,10,7,7,6,10,5,6,7,5,7,7,6,7,11,6,3,4,10,10,7,8,6,6,10,5,5,7,5,4,10,3,5,3,1,4,5,2,3,2,1,3,4,1,1,2,0,1,2,2,0,0,0,2,3,1,1,0,0,0,0,0,0,1,0,537794.1120000002,176611.99699999997,46.737796548456444,6.624712316563682,22.1
Ogens,1045,Ogens,5680,VD,2545387.997,1173275.193,fr,341,2,4,3,9,4,5,7,6,7,6,3,5,7,5,5,6,2,1,5,1,3,7,1,6,4,2,0,3,0,2,2,1,4,6,8,4,3,8,4,4,8,9,3,6,1,5,4,8,5,1,10,3,5,6,5,2,3,3,3,4,7,3,5,2,4,3,5,6,5,6,1,4,5,3,5,2,2,2,1,0,1,1,0,0,0,1,0,0,1,0,1,0,2,2,0,1,1,0,0,0,0,545387.997,173275.19299999997,46.70844679537889,6.7244649873715465,22.24
Villars-sous-Yens,1168,Villars-sous-Yens,5652,VD,2522507.611,1151139.84,fr,602,3,8,8,5,5,5,6,8,7,7,7,8,5,9,9,4,7,9,2,10,7,9,3,6,7,5,4,7,9,10,6,7,11,8,6,8,8,7,6,9,7,11,11,7,9,7,5,8,10,8,13,9,8,16,6,16,9,7,12,8,3,11,8,11,11,11,3,6,9,5,4,2,5,4,6,3,3,2,4,1,4,2,9,1,3,1,3,2,0,1,1,1,0,0,0,0,0,0,0,0,0,522507.61100000003,151139.84000000008,46.50707828684094,6.429006122094384,22.24
Premier,1324,Premier,5759,VD,2524002.875,1173914.741,fr,228,0,3,1,5,2,2,0,2,5,1,5,7,3,4,3,3,4,4,1,2,1,1,0,0,0,0,0,1,1,4,1,2,4,4,2,4,1,2,3,1,2,6,7,2,7,5,9,2,3,2,5,0,3,0,4,3,1,2,1,2,0,0,5,4,2,2,5,2,3,6,5,9,1,3,3,1,2,2,1,4,2,2,0,2,1,1,1,0,0,0,1,1,0,0,1,0,1,0,0,0,0,524002.875,173914.74099999992,46.71210624545437,6.444727191862636,22.27
Hermenches,1513,Hermenches,5673,VD,2547682.364,1165631.25,fr,373,3,2,5,5,4,0,5,1,2,5,2,6,5,1,3,3,5,3,2,4,5,6,0,3,5,5,3,3,8,5,1,5,4,5,6,6,5,6,2,3,3,2,3,4,5,9,6,5,5,6,3,6,6,10,11,6,8,4,7,5,6,11,4,5,6,6,4,2,7,3,3,0,5,3,3,4,5,3,5,5,3,0,2,1,1,0,1,3,1,1,2,0,0,1,0,0,0,1,0,0,0,547682.3640000001,165631.25,46.63987200858191,6.755337707289954,22.53
Hermenches,1513,Corcelles-le-Jorat,5785,VD,2546860.406,1163732.721,fr,499,4,4,6,3,7,6,3,7,6,5,2,9,6,7,3,7,4,3,7,7,6,3,3,3,9,10,12,6,5,4,8,2,8,8,7,9,7,8,8,5,7,1,5,4,15,5,6,7,3,4,11,6,9,2,4,10,5,5,6,7,7,15,8,9,7,5,8,5,8,6,7,3,3,3,4,3,7,1,7,3,4,0,3,4,0,0,3,2,2,0,1,0,0,1,1,0,0,0,0,0,0,546860.406,163732.7209999999,46.622729484193805,6.744822225348131,22.57
Sottens,1062,Jorat-Menthue,5804,VD,2547026.274,1166914.138,fr,1576,16,18,15,20,19,17,28,16,19,11,14,21,14,17,22,25,21,21,18,17,16,10,19,11,16,15,20,18,17,19,22,25,15,18,27,27,21,18,22,25,29,21,30,15,18,23,23,27,21,19,19,24,32,21,19,24,21,23,21,25,27,25,18,17,11,24,13,17,11,15,17,11,11,11,12,8,4,16,9,20,21,6,11,9,5,5,4,1,2,2,2,2,1,2,0,0,1,0,0,0,0,547026.2740000002,166914.13800000004,46.65136012978893,6.746621473825581,22.73
St-Cierges,1410,Montanaire,5693,VD,2546194.731,1171174.457,fr,2861,16,27,36,36,33,31,49,40,31,33,33,37,42,32,38,42,43,32,41,43,29,37,28,25,32,20,19,28,39,38,41,33,39,46,54,35,57,40,30,40,36,38,25,42,43,45,49,41,36,41,33,38,36,41,43,43,32,39,45,41,32,40,37,30,40,32,23,29,27,33,24,27,26,24,17,24,17,20,19,16,7,18,11,4,9,9,10,6,8,5,6,4,7,2,3,1,0,1,0,0,1,546194.7310000001,171174.45699999994,46.689615925044684,6.735260469100272,22.87
Ropraz,1088,Ropraz,5798,VD,2547331.87,1162290.681,fr,529,4,5,7,10,4,11,7,5,10,9,6,9,6,6,7,3,3,5,3,4,2,6,5,3,7,5,10,5,6,9,8,8,8,14,5,13,11,9,11,9,9,13,4,10,11,11,10,6,6,3,4,5,8,1,4,10,8,8,4,9,6,4,4,1,4,4,7,6,5,7,6,3,7,3,3,3,4,2,6,3,2,1,3,5,1,2,2,1,1,0,0,1,0,0,0,0,0,0,0,0,0,547331.8700000001,162290.6810000001,46.60979534803756,6.751142500012484,22.89
Grandvaux,1091,Bourg-en-Lavaux,5613,VD,2545494.796,1150923.231,fr,5465,41,45,53,50,56,45,57,45,51,48,51,47,53,58,65,62,56,71,54,68,48,47,59,38,71,48,49,64,42,51,57,59,82,81,77,83,67,55,77,68,71,69,73,74,83,94,63,90,99,75,73,82,82,69,75,87,85,82,82,82,87,83,74,80,70,65,60,79,59,55,45,51,62,62,49,61,52,45,53,45,50,44,33,39,24,19,20,30,14,15,6,14,4,5,2,8,2,4,1,0,5,545494.7960000001,150923.2309999999,46.50739536174963,6.7285065503993575,23.09
Mont-la-Ville,1148,Mont-la-Ville,5491,VD,2519765.33,1167448.034,fr,495,3,7,4,11,9,3,9,6,7,11,6,1,1,4,7,5,6,5,8,7,5,6,2,3,5,4,5,3,1,1,4,4,0,4,4,10,5,18,6,4,10,5,10,11,5,7,7,5,6,6,5,6,7,8,13,8,7,12,7,8,12,9,7,4,5,10,2,6,10,4,3,7,6,5,1,5,1,5,3,2,7,2,3,2,1,1,0,0,1,4,0,0,0,0,0,0,0,0,0,0,0,519765.3300000001,167448.03399999999,46.653443896407495,6.390443615183433,23.12
Savigny,1073,Savigny,5611,VD,2545329.309,1154353.646,fr,3506,29,34,37,33,43,30,40,44,45,44,43,42,37,43,40,48,38,31,36,26,46,36,35,36,34,28,36,27,25,35,35,43,37,44,43,45,48,57,60,52,46,45,51,53,52,41,49,47,58,45,54,55,57,46,60,52,41,42,55,48,49,43,50,49,50,42,41,46,37,35,35,34,30,42,35,36,26,35,29,19,19,25,26,19,11,9,13,10,8,8,5,7,6,2,5,3,1,1,0,0,3,545329.3089999999,154353.64599999995,46.538239251958906,6.725944711926395,23.12
Mollie-Margot,1073,Savigny,5611,VD,2546294.677,1156937.126,fr,3506,29,34,37,33,43,30,40,44,45,44,43,42,37,43,40,48,38,31,36,26,46,36,35,36,34,28,36,27,25,35,35,43,37,44,43,45,48,57,60,52,46,45,51,53,52,41,49,47,58,45,54,55,57,46,60,52,41,42,55,48,49,43,50,49,50,42,41,46,37,35,35,34,30,42,35,36,26,35,29,19,19,25,26,19,11,9,13,10,8,8,5,7,6,2,5,3,1,1,0,0,3,546294.6770000001,156937.12599999993,46.561556420545514,6.7382280851139225,23.22
Martherenges,1063,Montanaire,5693,VD,2547732.717,1168032.603,fr,2861,16,27,36,36,33,31,49,40,31,33,33,37,42,32,38,42,43,32,41,43,29,37,28,25,32,20,19,28,39,38,41,33,39,46,54,35,57,40,30,40,36,38,25,42,43,45,49,41,36,41,33,38,36,41,43,43,32,39,45,41,32,40,37,30,40,32,23,29,27,33,24,27,26,24,17,24,17,20,19,16,7,18,11,4,9,9,10,6,8,5,6,4,7,2,3,1,0,1,0,0,1,547732.7170000002,168032.6029999999,46.66147659626152,6.75572238770586,23.26
Villette (Lavaux),1096,Bourg-en-Lavaux,5613,VD,2543986.306,1149642.666,fr,5465,41,45,53,50,56,45,57,45,51,48,51,47,53,58,65,62,56,71,54,68,48,47,59,38,71,48,49,64,42,51,57,59,82,81,77,83,67,55,77,68,71,69,73,74,83,94,63,90,99,75,73,82,82,69,75,87,85,82,82,82,87,83,74,80,70,65,60,79,59,55,45,51,62,62,49,61,52,45,53,45,50,44,33,39,24,19,20,30,14,15,6,14,4,5,2,8,2,4,1,0,5,543986.3059999999,149642.66599999997,46.495751923009465,6.709009167060687,23.31
Berolle,1149,Bière,5425,VD,2515100.672,1156319.229,fr,1680,13,16,16,15,15,13,23,14,22,13,19,25,27,22,19,19,14,16,19,15,25,14,21,25,23,16,25,23,15,15,28,29,20,20,16,28,22,24,25,32,26,26,20,26,23,23,25,24,31,24,32,27,27,18,28,19,30,10,20,18,28,21,28,17,13,16,19,14,13,9,16,9,14,21,9,10,14,20,13,9,12,12,7,7,4,6,9,7,4,4,5,1,2,3,2,0,0,1,1,1,1,515100.6719999998,156319.22900000005,46.55276727253573,6.331563123165015,23.38
Chenaux,1091,Bourg-en-Lavaux,5613,VD,2545711.358,1149628.203,fr,5465,41,45,53,50,56,45,57,45,51,48,51,47,53,58,65,62,56,71,54,68,48,47,59,38,71,48,49,64,42,51,57,59,82,81,77,83,67,55,77,68,71,69,73,74,83,94,63,90,99,75,73,82,82,69,75,87,85,82,82,82,87,83,74,80,70,65,60,79,59,55,45,51,62,62,49,61,52,45,53,45,50,44,33,39,24,19,20,30,14,15,6,14,4,5,2,8,2,4,1,0,5,545711.358,149628.20299999998,46.49576385989624,6.7314799461931045,23.48
Lavigny,1175,Lavigny,5637,VD,2520951.366,1150486.495,fr,1100,13,6,13,18,9,6,18,13,10,10,19,13,19,19,16,10,19,11,15,18,21,7,16,7,9,8,10,8,13,14,8,11,12,19,14,12,11,20,22,20,15,14,21,15,11,21,23,14,12,25,21,15,25,20,17,19,11,7,13,18,16,20,16,12,6,9,13,7,9,6,13,13,9,15,2,10,6,6,5,6,3,4,4,2,3,1,3,2,0,1,0,1,0,2,1,0,0,0,0,0,0,520951.3659999999,150486.4950000001,46.501019661904515,6.408844188543197,23.76
Montpreveyres,1081,Montpreveyres,5792,VD,2546322.451,1159218.476,fr,653,3,8,10,6,7,10,3,9,8,4,5,7,5,4,4,12,10,9,12,8,19,9,12,10,9,6,5,6,9,6,5,7,13,9,6,15,7,5,6,10,10,6,14,8,7,7,11,10,13,14,11,5,10,11,8,8,6,13,19,11,7,9,8,18,6,9,6,3,11,4,3,5,3,5,2,6,2,4,2,1,3,2,3,1,1,2,1,0,2,0,1,3,0,0,0,0,0,0,0,0,0,546322.4509999999,159218.47600000002,46.58207990820662,6.738324780404146,23.78
Ogens,1045,Bioley-Magnoux,5903,VD,2545870.044,1174538.08,fr,257,2,3,4,3,2,5,4,2,6,4,5,9,4,2,0,0,1,1,2,0,0,1,0,3,3,4,2,6,1,4,3,3,5,1,5,4,6,4,9,5,2,3,5,5,4,2,3,1,1,1,2,3,5,1,2,3,4,2,2,3,2,0,1,2,6,4,4,2,5,3,9,3,2,2,3,3,4,2,4,1,1,3,1,0,1,0,0,0,0,2,2,0,0,0,1,0,0,0,1,0,1,545870.0440000002,174538.08000000007,46.719845902047474,6.730619470221669,23.9
Pailly,1416,Pailly,5530,VD,2541565.593,1172268.572,fr,576,7,4,8,4,10,8,8,3,13,8,10,12,7,5,12,8,6,9,4,7,9,5,5,3,5,5,5,7,4,3,7,4,9,10,8,2,7,8,6,8,10,9,16,12,6,3,12,13,6,13,6,7,14,13,7,10,15,11,13,6,6,5,2,4,3,7,5,6,7,6,3,3,4,2,8,3,3,1,4,1,3,2,3,2,2,2,0,0,1,0,1,0,0,1,1,0,0,0,0,0,0,541565.5929999999,172268.57199999993,46.69906834528089,6.674609853905739,23.93
Ursins,1412,Ursins,5932,VD,2541223.166,1176220.561,fr,233,3,1,4,3,2,2,1,4,3,2,4,4,4,4,1,5,0,1,1,2,1,2,3,2,3,3,0,3,4,1,2,5,4,4,2,2,6,0,4,9,2,1,5,2,1,2,2,2,3,3,4,4,4,5,1,4,7,4,4,3,3,4,3,2,3,1,1,1,2,2,4,4,2,2,2,1,1,3,4,1,3,1,3,2,0,2,0,1,0,0,0,0,0,1,0,0,0,0,0,0,0,541223.1660000002,176220.561,46.73458663150322,6.669626567036998,24.22
Yens,1169,Yens,5655,VD,2520734.543,1153184.003,fr,1502,10,13,20,13,16,13,21,18,18,18,20,21,22,19,29,26,20,17,25,10,14,16,16,17,18,11,13,7,11,11,10,11,19,13,15,11,13,17,17,15,28,25,21,26,32,25,26,22,23,24,28,24,28,27,26,23,22,27,20,19,32,21,16,13,17,18,8,12,15,10,15,12,9,12,12,21,13,13,13,12,11,11,7,4,6,4,5,4,2,3,1,3,2,1,1,1,1,1,0,0,0,520734.54300000006,153184.00300000003,46.52525764906467,6.4055572686162146,24.36
Grandvaux,1091,Forel (Lavaux),5604,VD,2546476.492,1151512.7,fr,2088,14,15,24,29,33,27,24,22,21,22,23,25,27,22,28,20,36,17,17,16,26,16,20,16,20,24,20,8,17,13,18,20,28,32,25,40,27,31,47,31,27,35,30,28,24,20,30,36,30,36,40,26,31,31,30,31,28,29,40,34,29,39,28,29,26,18,25,26,18,17,17,17,20,15,18,23,22,11,18,19,22,11,14,4,9,7,7,6,4,4,1,2,1,0,1,2,0,0,1,0,0,546476.4920000001,151512.69999999995,46.51277696419496,6.741227813507121,24.37
Montcherand,1354,Montcherand,5756,VD,2529106.531,1176351.778,fr,489,2,4,4,5,3,10,1,6,4,5,1,5,6,11,7,7,9,10,12,10,6,6,4,4,3,6,4,4,8,2,3,5,1,4,7,9,10,2,5,7,9,9,3,6,5,8,10,11,7,12,6,9,2,9,7,7,7,8,7,13,8,10,6,9,4,2,8,5,3,6,3,6,3,1,2,1,4,6,2,6,2,0,0,2,1,0,2,2,2,1,1,0,1,1,2,0,0,0,0,0,0,529106.531,176351.77799999993,46.734588902782214,6.511090957313285,24.57
Mathod,1438,Mathod,5919,VD,2533463.758,1179362.956,fr,725,9,7,10,7,7,7,8,9,7,7,3,6,12,3,5,10,4,11,14,5,15,9,10,7,13,9,10,16,16,13,8,11,14,13,13,10,16,7,14,12,10,13,4,7,9,10,7,12,6,10,6,8,5,15,7,13,9,5,15,15,16,10,11,6,8,8,8,10,6,4,3,4,5,7,0,6,5,2,3,4,4,5,2,0,2,2,1,3,1,1,1,1,2,0,0,0,0,0,0,0,1,533463.7579999999,179362.956,46.7621231376136,6.567657352613091,24.82
Sergey,1355,Sergey,5762,VD,2528338.407,1178265.047,fr,133,1,0,0,2,2,0,2,0,1,1,1,1,3,2,2,4,1,3,1,2,0,1,2,0,4,1,0,1,2,0,2,2,1,1,2,2,3,1,2,3,0,0,1,2,1,3,4,3,3,2,3,2,2,2,0,2,3,3,1,5,3,1,3,2,1,3,2,1,4,2,1,1,0,1,1,0,0,0,0,1,1,1,1,0,0,0,1,0,0,0,0,0,0,0,0,0,1,0,0,0,0,528338.4070000001,178265.04700000002,46.75171631392422,6.500742848501698,24.83
Riex,1097,Bourg-en-Lavaux,5613,VD,2546507.438,1150230.893,fr,5465,41,45,53,50,56,45,57,45,51,48,51,47,53,58,65,62,56,71,54,68,48,47,59,38,71,48,49,64,42,51,57,59,82,81,77,83,67,55,77,68,71,69,73,74,83,94,63,90,99,75,73,82,82,69,75,87,85,82,82,82,87,83,74,80,70,65,60,79,59,55,45,51,62,62,49,61,52,45,53,45,50,44,33,39,24,19,20,30,14,15,6,14,4,5,2,8,2,4,1,0,5,546507.4380000001,150230.89299999992,46.50124925867738,6.741779322670276,24.89
Allaman,1165,Allaman,5851,VD,2519688.754,1147062.101,fr,430,2,8,4,2,5,3,3,4,2,2,1,7,4,3,2,8,5,5,7,3,5,3,2,4,6,9,4,10,6,4,8,3,5,7,6,10,8,6,5,6,4,2,6,6,6,7,5,4,8,5,6,6,8,5,7,11,7,8,9,10,6,3,7,8,4,3,6,3,1,5,1,3,5,2,6,1,7,3,3,8,3,1,3,1,0,2,1,0,2,0,2,0,1,0,1,0,1,0,0,0,0,519688.7540000002,147062.10100000002,46.47006766369978,6.392992098551702,24.94
Cully,1096,Bourg-en-Lavaux,5613,VD,2545365.215,1148783.196,fr,5465,41,45,53,50,56,45,57,45,51,48,51,47,53,58,65,62,56,71,54,68,48,47,59,38,71,48,49,64,42,51,57,59,82,81,77,83,67,55,77,68,71,69,73,74,83,94,63,90,99,75,73,82,82,69,75,87,85,82,82,82,87,83,74,80,70,65,60,79,59,55,45,51,62,62,49,61,52,45,53,45,50,44,33,39,24,19,20,30,14,15,6,14,4,5,2,8,2,4,1,0,5,545365.2149999999,148783.196,46.488134673742515,6.72707117817168,25.01
Rances,1439,Rances,5760,VD,2529437.448,1179735.222,fr,508,2,5,3,2,5,6,4,4,9,6,7,8,7,3,2,4,4,4,4,8,4,7,7,8,6,11,4,7,3,3,2,2,7,12,5,8,7,6,9,3,8,8,2,5,7,7,8,8,8,6,6,9,7,4,10,2,11,12,9,10,10,7,8,6,5,8,8,6,4,7,6,8,5,5,2,3,5,4,7,6,4,2,4,1,2,1,1,2,0,1,1,1,2,1,0,0,0,0,0,0,0,529437.4479999999,179735.22200000007,46.76505751652541,6.514899071604091,25.11
Orzens,1413,Orzens,5925,VD,2542333.409,1175634.223,fr,216,2,2,4,1,1,4,2,0,3,2,1,2,2,3,5,0,4,2,1,2,1,2,1,1,4,1,8,3,3,5,3,0,3,2,6,3,4,2,5,1,2,0,2,4,2,5,5,2,2,3,1,3,1,1,2,3,4,3,2,4,2,2,4,6,5,4,3,4,3,2,2,1,1,1,2,3,1,5,1,0,0,0,0,0,0,2,1,0,0,4,1,2,0,1,1,0,0,0,0,0,0,542333.409,175634.223,46.729409417308936,6.6842253506129055,25.18
Aubonne,1170,Aubonne,5422,VD,2519278.698,1148950.527,fr,3862,25,31,25,36,29,33,40,32,50,47,38,52,42,50,63,54,46,48,48,35,49,48,40,54,37,52,47,32,39,49,46,37,40,46,42,52,42,63,54,52,44,41,65,60,63,70,53,49,67,65,70,56,64,79,66,70,56,54,44,55,44,57,43,45,41,46,42,36,31,38,38,29,34,29,24,28,23,25,28,28,20,30,25,16,24,18,17,13,6,5,4,10,8,4,1,3,5,0,4,1,3,519278.69799999986,148950.527,46.48700441909668,6.3873244616393485,25.22
Vaulion,1325,Vaulion,5765,VD,2518512.293,1170613.642,fr,489,1,6,3,4,4,5,2,6,7,5,7,7,4,6,8,4,5,4,3,5,4,1,7,5,3,2,7,4,4,6,6,6,6,12,10,6,13,13,7,5,8,7,7,6,6,8,7,5,10,7,7,7,2,7,3,6,5,7,9,10,8,3,9,4,3,13,8,5,12,6,6,5,3,9,8,5,3,2,5,2,2,1,1,0,0,1,1,1,1,1,0,2,0,1,1,0,0,0,0,0,0,518512.29300000006,170613.642,46.68176587125117,6.37351447480761,25.22
Rossenges,1513,Rossenges,5684,VD,2549179.342,1167271.711,fr,90,2,0,2,2,0,1,0,1,1,0,0,1,0,1,1,1,2,0,0,0,0,0,1,4,3,4,0,0,3,0,0,0,0,7,1,0,1,2,2,2,6,0,2,2,0,0,0,3,0,2,4,0,1,1,1,1,1,0,2,1,1,0,1,0,0,0,1,1,2,0,0,0,0,1,0,0,0,2,0,0,2,0,0,0,1,1,1,1,0,1,0,0,1,0,0,0,0,0,0,0,1,549179.3420000002,167271.7109999999,46.65474387215923,6.774706918422911,25.35
Aubonne,1170,Lavigny,5637,VD,2520828.487,1149007.823,fr,1100,13,6,13,18,9,6,18,13,10,10,19,13,19,19,16,10,19,11,15,18,21,7,16,7,9,8,10,8,13,14,8,11,12,19,14,12,11,20,22,20,15,14,21,15,11,21,23,14,12,25,21,15,25,20,17,19,11,7,13,18,16,20,16,12,6,9,13,7,9,6,13,13,9,15,2,10,6,6,5,6,3,4,4,2,3,1,3,2,0,1,0,1,0,2,1,0,0,0,0,0,0,520828.4870000002,149007.8230000001,46.487704739706345,6.4074967039417565,25.35
Bière,1145,Bière,5425,VD,2513721.964,1155896.514,fr,1680,13,16,16,15,15,13,23,14,22,13,19,25,27,22,19,19,14,16,19,15,25,14,21,25,23,16,25,23,15,15,28,29,20,20,16,28,22,24,25,32,26,26,20,26,23,23,25,24,31,24,32,27,27,18,28,19,30,10,20,18,28,21,28,17,13,16,19,14,13,9,16,9,14,21,9,10,14,20,13,9,12,12,7,7,4,6,9,7,4,4,5,1,2,3,2,0,0,1,1,1,1,513721.96400000015,155896.51399999997,46.548788727875966,6.313666472760218,25.36
Thierrens,1410,Montanaire,5693,VD,2547928.139,1172676.342,fr,2861,16,27,36,36,33,31,49,40,31,33,33,37,42,32,38,42,43,32,41,43,29,37,28,25,32,20,19,28,39,38,41,33,39,46,54,35,57,40,30,40,36,38,25,42,43,45,49,41,36,41,33,38,36,41,43,43,32,39,45,41,32,40,37,30,40,32,23,29,27,33,24,27,26,24,17,24,17,20,19,16,7,18,11,4,9,9,10,6,8,5,6,4,7,2,3,1,0,1,0,0,1,547928.139,172676.34199999995,46.70326311729637,6.7577491773719744,25.43
Forel (Lavaux),1072,Forel (Lavaux),5604,VD,2548216.86,1154848.207,fr,2088,14,15,24,29,33,27,24,22,21,22,23,25,27,22,28,20,36,17,17,16,26,16,20,16,20,24,20,8,17,13,18,20,28,32,25,40,27,31,47,31,27,35,30,28,24,20,30,36,30,36,40,26,31,31,30,31,28,29,40,34,29,39,28,29,26,18,25,26,18,17,17,17,20,15,18,23,22,11,18,19,22,11,14,4,9,7,7,6,4,4,1,2,1,0,1,2,0,0,1,0,0,548216.8599999999,154848.20699999994,46.5429175948245,6.763529721700096,25.82
Gressy,1432,Yverdon-les-Bains,5938,VD,2538768.002,1178103.684,fr,30332,245,307,327,316,288,334,303,348,350,312,368,304,368,358,343,355,340,339,339,367,354,324,341,358,377,396,419,393,431,439,490,472,457,450,431,403,441,432,432,468,433,398,422,411,418,484,442,408,387,406,450,387,411,415,409,386,388,380,356,379,347,352,342,334,302,323,278,276,278,237,252,232,229,230,233,255,234,259,228,203,204,206,178,153,139,136,104,109,93,100,88,69,70,50,44,24,18,17,4,7,6,538768.0019999999,178103.6839999999,46.75130440068113,6.63725484866401,25.86
Yverdon-les-Bains,1400,Yverdon-les-Bains,5938,VD,2539180.581,1180801.624,fr,30332,245,307,327,316,288,334,303,348,350,312,368,304,368,358,343,355,340,339,339,367,354,324,341,358,377,396,419,393,431,439,490,472,457,450,431,403,441,432,432,468,433,398,422,411,418,484,442,408,387,406,450,387,411,415,409,386,388,380,356,379,347,352,342,334,302,323,278,276,278,237,252,232,229,230,233,255,234,259,228,203,204,206,178,153,139,136,104,109,93,100,88,69,70,50,44,24,18,17,4,7,6,539180.5809999998,180801.62400000007,46.77561008368707,6.642295853081666,26.22
Buchillon,1164,Buchillon,5623,VD,2520933.442,1146668.837,fr,686,1,4,1,6,1,6,13,8,11,17,12,9,6,9,12,7,11,11,3,8,8,9,9,9,5,6,2,3,6,3,6,2,7,6,1,5,7,9,11,5,12,12,17,9,14,13,7,6,8,7,10,13,14,11,13,9,9,15,9,11,5,9,10,8,10,8,7,7,11,9,4,7,3,7,7,7,7,7,9,7,5,7,4,3,5,4,2,1,4,0,1,0,4,1,1,1,0,0,0,0,0,520933.4419999998,146668.83700000006,46.46667833339726,6.40926308713362,26.28
La Russille,1356,Les Clées,5750,VD,2527498.302,1176926.326,fr,194,2,1,1,3,2,4,5,1,1,3,2,3,0,1,2,3,2,2,3,1,1,1,1,1,3,1,2,1,0,1,1,1,1,3,9,5,2,4,2,2,3,2,1,1,3,2,3,3,4,3,1,2,0,3,3,3,2,1,2,4,0,2,3,2,3,6,3,4,4,3,3,4,3,0,2,3,3,1,2,3,3,1,2,1,1,1,0,0,0,0,0,0,0,0,0,0,0,0,0,1,0,527498.3020000001,176926.32599999988,46.73958394533196,6.489960579033528,26.33
Féchy,1173,Féchy,5427,VD,2518235.694,1147783.033,fr,919,6,4,7,11,11,11,7,18,6,11,8,10,10,8,14,14,12,8,19,12,11,11,15,9,8,10,5,14,9,7,8,12,10,13,16,4,7,5,12,11,14,10,9,12,16,11,22,17,8,21,20,13,21,21,14,16,17,10,17,14,14,11,15,7,9,12,8,10,2,7,5,9,5,12,11,10,5,8,5,12,7,5,2,4,5,3,0,0,2,1,2,0,2,0,1,0,0,1,0,0,0,518235.69400000013,147783.03300000005,46.4763765717065,6.373948372386837,26.33
Oppens,1047,Oppens,5923,VD,2543112.451,1174157.186,fr,202,3,1,1,2,0,2,2,2,4,1,2,4,4,2,2,4,1,2,2,1,1,5,4,0,1,3,1,1,1,0,2,2,3,5,4,0,2,3,3,1,5,3,1,1,3,6,3,2,4,0,1,2,4,1,7,5,2,3,5,4,2,5,2,3,3,6,6,0,1,3,1,3,2,3,0,4,0,1,1,2,0,1,1,0,1,1,0,0,2,0,0,0,1,0,1,0,0,0,0,0,0,543112.4509999999,174157.186,46.71619025977624,6.694599604114467,26.4
Chexbres,1071,Chexbres,5601,VD,2549322.328,1148295.743,fr,2263,20,21,12,25,16,15,23,23,14,31,24,13,32,30,22,24,28,25,29,27,24,27,22,22,25,11,18,16,20,18,28,23,27,29,42,42,32,35,24,24,21,37,35,38,23,31,33,34,34,28,32,25,34,41,28,35,27,34,40,32,31,33,27,27,22,20,22,19,21,21,21,20,15,13,26,15,14,21,16,22,21,27,14,22,16,12,13,15,15,9,14,11,9,6,9,3,7,2,1,2,4,549322.3280000002,148295.74300000002,46.48406092217592,6.778659637556766,26.4
Berolle,1149,Berolle,5424,VD,2514999.761,1157989.71,fr,303,3,3,3,3,6,3,5,6,5,2,3,2,1,2,5,7,4,2,5,1,1,4,5,3,7,1,3,5,5,2,4,1,3,4,6,3,3,1,2,7,2,7,5,2,4,5,5,9,4,2,1,6,4,7,3,3,2,1,7,9,9,5,6,2,2,6,4,4,1,2,0,1,4,3,3,2,3,1,3,0,0,0,5,1,1,4,1,0,0,1,0,0,0,0,0,0,0,0,0,0,0,514999.76099999994,157989.70999999996,46.56777991986938,6.329939672588846,26.41
Rueyres,1046,Rueyres,5534,VD,2542969.517,1172000.548,fr,304,3,4,2,5,4,4,1,6,1,4,3,3,2,3,5,2,7,2,4,3,5,2,7,5,8,3,9,3,7,2,2,1,2,1,4,3,4,3,2,3,4,2,4,5,9,5,4,4,3,4,3,5,4,6,6,2,3,5,6,5,2,5,2,1,1,4,5,1,3,3,5,1,1,3,6,2,6,3,0,0,3,3,1,0,2,2,0,1,3,0,1,0,0,0,1,0,0,0,0,0,0,542969.517,172000.54799999995,46.69677890357977,6.692998277641483,26.51
Suscévaz,1437,Suscévaz,5930,VD,2534962.91,1179393.231,fr,237,3,3,3,4,5,3,3,2,4,0,5,2,2,6,2,5,2,4,4,4,8,3,3,1,1,1,2,1,1,2,5,3,2,2,1,2,2,6,0,6,2,2,3,4,4,3,4,2,4,4,3,3,3,4,2,1,5,1,4,0,3,5,3,1,2,2,3,1,4,1,1,1,2,2,2,2,3,5,4,4,0,2,0,0,2,2,0,0,0,0,2,1,0,0,0,0,0,1,0,0,0,534962.9100000001,179393.2309999999,46.76254342539958,6.587275860144125,26.64
Gossens,1407,Donneloye,5913,VD,2543337.732,1176783.277,fr,917,5,14,11,15,12,13,17,13,17,12,9,14,7,13,7,8,15,7,11,18,9,14,10,12,6,12,4,7,13,9,11,9,9,14,18,16,13,18,20,10,14,17,18,14,10,7,8,10,10,8,14,20,12,17,13,15,13,13,13,9,7,13,8,11,8,8,10,5,12,7,8,6,2,6,8,6,9,7,5,4,4,2,5,6,3,2,2,3,2,4,0,2,2,0,2,0,1,0,0,0,0,543337.7319999998,176783.277,46.73983131969867,6.6972214009992,26.73
Chexbres,1071,Rivaz,5609,VD,2549229.453,1147737.465,fr,329,3,2,3,5,4,1,3,2,2,3,3,2,2,0,2,5,1,0,3,2,3,2,5,6,5,5,2,4,6,6,3,1,6,5,2,4,4,6,4,5,5,7,4,3,3,6,2,0,5,6,2,5,7,9,5,4,5,5,9,8,3,2,4,6,4,4,3,3,4,0,4,3,2,2,4,2,2,1,4,2,1,6,4,2,5,2,4,3,3,2,0,2,1,1,1,0,0,0,1,0,0,549229.4530000002,147737.46500000008,46.47903201540236,6.777511427519737,26.87
Moudon,1510,Moudon,5678,VD,2550459.262,1169009.271,fr,6651,70,72,71,88,88,80,102,93,98,90,88,94,93,68,106,94,92,89,89,97,68,85,76,73,92,102,87,81,90,73,105,79,88,108,103,92,108,106,109,96,96,81,106,104,108,92,97,98,89,97,99,80,92,93,73,77,86,88,94,87,69,76,66,65,64,56,50,50,47,44,42,43,46,33,37,41,34,35,33,29,30,33,22,21,21,14,17,16,8,15,16,11,8,9,13,4,4,5,0,3,1,550459.2620000001,169009.27099999995,46.6704697819013,6.791239992166579,26.87
Correvon,1410,Montanaire,5693,VD,2546556.453,1174226.298,fr,2861,16,27,36,36,33,31,49,40,31,33,33,37,42,32,38,42,43,32,41,43,29,37,28,25,32,20,19,28,39,38,41,33,39,46,54,35,57,40,30,40,36,38,25,42,43,45,49,41,36,41,33,38,36,41,43,43,32,39,45,41,32,40,37,30,40,32,23,29,27,33,24,27,26,24,17,24,17,20,19,16,7,18,11,4,9,9,10,6,8,5,6,4,7,2,3,1,0,1,0,0,1,546556.4530000002,174226.29799999995,46.71709672958758,6.739633520150666,27.14
Vucherens,1509,Vucherens,5692,VD,2549143.561,1164265.199,fr,622,7,2,14,5,9,13,9,8,6,7,7,11,10,10,9,4,7,12,3,4,5,5,4,7,11,6,7,6,3,4,4,6,9,12,13,8,11,10,5,10,11,13,12,3,7,3,5,14,15,10,12,5,8,10,4,11,5,7,4,15,8,11,12,8,12,5,8,3,5,9,2,2,6,5,5,3,2,5,5,1,5,4,2,1,2,5,1,4,2,1,0,0,0,0,0,0,0,0,1,0,0,549143.5610000002,164265.19900000002,46.62769690311758,6.774571855707474,27.24
Champvent,1443,Champvent,5905,VD,2533151.785,1181951.215,fr,725,5,9,10,3,4,11,8,9,9,10,15,13,11,7,11,8,5,9,7,7,6,11,9,7,5,7,13,9,15,9,7,11,3,12,10,18,7,13,8,12,15,9,11,14,12,14,10,9,4,10,10,4,14,13,9,9,7,6,8,15,16,6,12,7,6,4,9,3,4,7,9,3,7,9,5,7,6,6,3,2,4,5,3,2,2,2,3,3,2,0,0,0,1,0,0,0,0,0,0,1,0,533151.7850000001,181951.21500000008,46.78537298314498,6.563195898139216,27.27
Rivaz,1071,Rivaz,5609,VD,2549447.003,1147454.952,fr,329,3,2,3,5,4,1,3,2,2,3,3,2,2,0,2,5,1,0,3,2,3,2,5,6,5,5,2,4,6,6,3,1,6,5,2,4,4,6,4,5,5,7,4,3,3,6,2,0,5,6,2,5,7,9,5,4,5,5,9,8,3,2,4,6,4,4,3,3,4,0,4,3,2,2,4,2,2,1,4,2,1,6,4,2,5,2,4,3,3,2,0,2,1,1,1,0,0,0,1,0,0,549447.003,147454.95200000005,46.476507175744324,6.780375049870822,27.45
Les Cullayes,1080,Forel (Lavaux),5604,VD,2547950.385,1157332.59,fr,2088,14,15,24,29,33,27,24,22,21,22,23,25,27,22,28,20,36,17,17,16,26,16,20,16,20,24,20,8,17,13,18,20,28,32,25,40,27,31,47,31,27,35,30,28,24,20,30,36,30,36,40,26,31,31,30,31,28,29,40,34,29,39,28,29,26,18,25,26,18,17,17,17,20,15,18,23,22,11,18,19,22,11,14,4,9,7,7,6,4,4,1,2,1,0,1,2,0,0,1,0,0,547950.3849999998,157332.59000000008,46.56524458249845,6.759775626918286,27.56
Perroy,1166,Féchy,5427,VD,2518448.796,1146828.674,fr,919,6,4,7,11,11,11,7,18,6,11,8,10,10,8,14,14,12,8,19,12,11,11,15,9,8,10,5,14,9,7,8,12,10,13,16,4,7,5,12,11,14,10,9,12,16,11,22,17,8,21,20,13,21,21,14,16,17,10,17,14,14,11,15,7,9,12,8,10,2,7,5,9,5,12,11,10,5,8,5,12,7,5,2,4,5,3,0,0,2,1,2,0,2,0,1,0,0,1,0,0,0,518448.7960000001,146828.67400000012,46.46781828365445,6.3768910600672175,27.66
St-Saphorin (Lavaux),1071,Saint-Saphorin (Lavaux),5610,VD,2550378.933,1147786.824,fr,389,2,1,4,2,0,1,5,0,8,4,5,6,2,3,3,5,5,6,7,4,6,1,9,3,6,5,3,4,4,1,4,5,4,7,10,5,9,7,4,10,7,4,6,5,7,8,5,3,12,5,6,9,7,12,3,4,7,8,4,5,4,2,6,2,3,2,4,1,5,4,4,3,7,2,3,2,3,6,3,3,2,1,0,2,0,1,1,2,1,2,0,1,0,0,0,0,0,0,0,0,0,550378.9330000002,147786.82400000002,46.479562128150576,6.7924737833739535,27.77
Vaulion,1325,Mont-la-Ville,5491,VD,2518010.821,1168461.129,fr,495,3,7,4,11,9,3,9,6,7,11,6,1,1,4,7,5,6,5,8,7,5,6,2,3,5,4,5,3,1,1,4,4,0,4,4,10,5,18,6,4,10,5,10,11,5,7,7,5,6,6,5,6,7,8,13,8,7,12,7,8,12,9,7,4,5,10,2,6,10,4,3,7,6,5,1,5,1,5,3,2,7,2,3,2,1,1,0,0,1,4,0,0,0,0,0,0,0,0,0,0,0,518010.821,168461.12899999996,46.66234328729477,6.367344675693812,27.77
Les Clées,1356,Les Clées,5750,VD,2525560.715,1175737.208,fr,194,2,1,1,3,2,4,5,1,1,3,2,3,0,1,2,3,2,2,3,1,1,1,1,1,3,1,2,1,0,1,1,1,1,3,9,5,2,4,2,2,3,2,1,1,3,2,3,3,4,3,1,2,0,3,3,3,2,1,2,4,0,2,3,2,3,6,3,4,4,3,3,4,3,0,2,3,3,1,2,3,3,1,2,1,1,1,0,0,0,0,0,0,0,0,0,0,0,0,0,1,0,525560.7149999999,175737.2080000001,46.728674600733726,6.464803126395735,27.78
Epautheyres,1417,Essertines-sur-Yverdon,5520,VD,2539428.84,1176359.78,fr,1148,15,16,16,16,16,12,16,15,19,19,17,18,15,11,15,12,12,15,13,11,14,12,15,19,13,15,8,14,16,19,17,9,19,12,14,13,16,11,19,23,22,20,24,25,18,18,17,16,18,11,22,15,16,12,8,11,16,17,17,15,14,9,12,9,15,9,10,11,5,5,11,7,7,8,10,8,9,4,7,9,6,3,5,6,2,1,4,1,1,1,0,0,1,0,2,0,0,1,0,0,0,539428.8399999999,176359.78000000003,46.735678346680075,6.646133558578807,27.83
Cheseaux-Noréaz,1400,Cuarny,5911,VD,2541596.421,1180779.528,fr,241,1,5,1,5,2,3,2,3,2,3,4,3,2,4,2,2,1,1,0,3,4,1,2,2,4,3,2,1,2,4,5,2,2,7,4,4,3,4,3,4,5,4,3,3,3,5,2,2,3,1,2,4,4,0,5,3,3,5,2,6,2,8,2,1,5,2,3,6,2,4,2,3,1,3,1,3,5,2,0,0,0,1,1,1,2,1,1,0,1,0,0,0,0,0,0,0,0,1,0,0,0,541596.4210000001,180779.52799999993,46.77562744373581,6.673928527685769,27.86
Pomy,1405,Pomy,5926,VD,2541207.305,1178890.843,fr,877,5,11,12,7,18,14,7,19,11,14,12,8,15,9,14,11,11,14,7,14,10,12,9,9,18,10,10,6,10,3,8,7,8,13,16,19,13,8,12,8,15,14,23,13,8,10,13,6,8,11,9,15,30,12,11,17,16,7,14,11,11,11,6,8,5,5,11,12,9,4,7,8,4,8,3,0,2,6,11,3,5,7,3,3,2,0,3,2,3,2,2,1,1,1,1,1,1,0,0,0,0,541207.3050000002,178890.8430000001,46.75860449254926,6.669076458681335,27.92
Le Pont,1342,L'Abbaye,5871,VD,2515666.151,1169300.805,fr,1538,9,15,17,16,20,12,14,14,17,21,20,13,16,13,18,19,13,14,11,13,11,17,12,8,11,11,14,6,19,18,18,21,14,21,19,18,21,22,28,19,17,19,14,20,19,17,22,22,12,21,21,26,19,22,16,16,19,24,20,23,17,22,24,35,22,20,22,32,22,25,26,17,17,21,17,21,19,23,10,16,14,13,10,7,7,9,3,5,5,5,3,2,0,1,1,0,1,0,1,0,1,515666.15100000007,169300.80499999993,46.66960385971848,6.336558484836628,28.04
Rivaz,1071,Puidoux,5607,VD,2549211.409,1147274.121,fr,2976,24,21,26,37,26,31,23,35,31,26,33,34,39,28,31,42,39,31,32,37,29,46,40,44,32,31,34,29,31,36,40,39,39,48,48,45,48,55,49,38,43,52,43,37,54,51,42,41,47,53,46,54,36,56,47,47,45,36,54,58,47,44,26,26,28,30,27,19,25,30,27,21,18,14,25,21,24,23,14,17,11,12,18,6,5,6,5,10,4,2,6,4,2,2,4,2,1,1,0,0,0,549211.409,147274.12100000004,46.47486273173041,6.777327314431282,28.11
Etoy,1163,Etoy,5636,VD,2521904.372,1148495.551,fr,2966,17,22,27,25,25,30,28,25,21,27,29,19,38,33,37,39,43,39,41,47,44,32,37,41,41,47,40,34,24,26,41,33,30,29,31,31,31,31,31,31,36,38,36,43,49,42,47,55,51,46,45,54,50,39,45,59,56,66,60,58,49,45,47,49,34,35,24,28,15,15,18,15,18,16,19,21,26,30,16,22,14,12,17,19,15,10,12,6,5,8,6,3,7,4,3,3,1,2,1,1,3,521904.372,148495.55099999998,46.48322321618379,6.4215940444217505,28.14
Chanéaz,1409,Montanaire,5693,VD,2546788.305,1175541.166,fr,2861,16,27,36,36,33,31,49,40,31,33,33,37,42,32,38,42,43,32,41,43,29,37,28,25,32,20,19,28,39,38,41,33,39,46,54,35,57,40,30,40,36,38,25,42,43,45,49,41,36,41,33,38,36,41,43,43,32,39,45,41,32,40,37,30,40,32,23,29,27,33,24,27,26,24,17,24,17,20,19,16,7,18,11,4,9,9,10,6,8,5,6,4,7,2,3,1,0,1,0,0,1,546788.3050000002,175541.16599999997,46.728942669180846,6.742513269878941,28.15
Syens,1510,Syens,5688,VD,2549380.008,1165890.669,fr,151,1,1,1,1,3,1,1,3,3,1,1,4,1,1,2,0,1,1,2,1,6,1,2,0,1,1,5,4,1,2,1,3,0,2,0,4,1,4,2,3,2,1,6,0,0,1,2,3,2,0,0,2,2,3,0,3,1,4,2,1,3,2,2,3,0,2,2,3,3,0,2,1,1,0,4,2,1,2,0,0,4,0,1,0,1,0,0,0,1,0,1,0,0,0,0,1,0,0,1,0,0,549380.0079999999,165890.669,46.64233633368154,6.777480333742498,28.18
Epesses,1098,Puidoux,5607,VD,2547714.047,1148488.571,fr,2976,24,21,26,37,26,31,23,35,31,26,33,34,39,28,31,42,39,31,32,37,29,46,40,44,32,31,34,29,31,36,40,39,39,48,48,45,48,55,49,38,43,52,43,37,54,51,42,41,47,53,46,54,36,56,47,47,45,36,54,58,47,44,26,26,28,30,27,19,25,30,27,21,18,14,25,21,24,23,14,17,11,12,18,6,5,6,5,10,4,2,6,4,2,2,4,2,1,1,0,0,0,547714.0469999998,148488.571,46.48567188040275,6.757694182055149,28.18
